,축제명,시도명,시군구명,법정동 코드,법정동 이름,도로명주소 코드,도로명주소,zip_cd,위도,경도,축제일,연,월,일,방문객수
0,블루거제페스티벌,경상남도,거제시,4831010200.0,장승포동,483000000000.0,경상남도 거제시 장승로 145 (장승포동),53322.0,34.86717826,128.7233592,20190731,2019,7,31,19691
1,바다로 세계로,경상남도,거제시,4831010900.0,고현동,483000000000.0,경상남도 거제시 계룡로 125 (고현동),53257.0,34.88052883,128.6208143,20190801,2019,8,1,26327
2,희망달서 큰잔치,대구광역시,달서구,2729011000.0,장기동,273000000000.0,대구광역시 달서구 문화회관길 160 (장기동),42699.0,35.84285866,128.52212409999998,20201016,2020,10,16,16633
3,와룡민속한마당,대구광역시,달서구,2729010800.0,이곡동,273000000000.0,대구광역시 달서구 계대동문로 77 (이곡동),42611.0,35.85575426,128.500776,20200620,2020,6,20,25751
4,두류문화한마당,대구광역시,달서구,2729010200.0,두류동,273000000000.0,대구광역시 달서구 야외음악당로 180 (두류동),42672.0,35.85115165,128.5561993,20200522,2020,5,22,4018
5,신창동 어울림축제,광주광역시,광산구,2920011800.0,신창동,292000000000.0,광주광역시 광산구 왕버들로 291 (신창동),62251.0,35.19563839999999,126.840969,20171028,2017,10,28,22944
6,제2회 하남동 도농공 한울타리 어울림축제,광주광역시,광산구,2920012500.0,하남동,292000000000.0,광주광역시 광산구 하남대로54번안길 133 (하남동),62336.0,35.178175,126.7999659,20171028,2017,10,28,29707
7,코로나19에 따른 축제 일체 잠정 중단,대구광역시,동구,2714011600.0,동호동,271000000000.0,대구광역시 동구 경안로 700 (동호동),41085.0,35.86471972,128.71429479999998,20200101,2020,1,1,27510
8,송년불꽃축제,경상남도,거제시,4831010200.0,장승포동,483000000000.0,경상남도 거제시 장승로 138 (장승포동),53322.0,34.8663093,128.7246401,20191231,2019,12,31,25781
9,춘천마임축제,강원도,춘천시,4211011200.0,효자동,421000000000.0,강원도 춘천시 춘천로 112 (효자동),24336.0,37.87309646,127.7278377,20190526,2019,5,26,8528
10,정월대보름축제,강원도,춘천시,4211012300.0,퇴계동,421000000000.0,강원도 춘천시 퇴계농공로 40 (퇴계동),24420.0,37.849584,127.74364479999998,20190219,2019,2,19,18687
11,주안미디어문화축제,인천광역시,미추홀구,2817710500.0,주안동,282000000000.0,인천광역시 미추홀구 경인로 351,22139.0,37.458746000000005,126.679586,20200918,2020,9,18,1744
12,춘천가족음악축제,강원도,춘천시,4211012100.0,온의동,421000000000.0,강원도 춘천시 방송길 109 (온의동),24363.0,37.86760654,127.7216035,20190921,2019,9,21,23773
13,김유정문학제,강원도,춘천시,4211033024.0,신동면,421000000000.0,강원도 춘천시 신동면 김유정로 1430-14,24412.0,37.81831318,127.717698,20191001,2019,10,1,8583
14,옹진군 해넘이 및 제야의 밤,인천광역시,옹진군,2872031024.0,북도면,287000000000.0,인천광역시 옹진군 북도면 장봉로 193,23112.0,37.53014696,126.372272,20191231,2019,12,31,10155
15,국사봉 해맞이행사,인천광역시,옹진군,2872036022.0,영흥면,287000000000.0,인천광역시 옹진군 영흥면 영흥북로231번길 3,23118.0,37.27012096,126.4931449,20191231,2019,12,31,23725
16,거제학동몽돌해변 불꽃축제,경상남도,거제시,4831032028.0,동부면,483000000000.0,경상남도 거제시 동부면 거제대로 946,53332.0,34.77438469,128.6408652,20191019,2019,10,19,11827
17,제27회 용문산 영목제,경기도,양평군,4183040033.0,용문면,418000000000.0,경기도 양평군 용문면 용문산로 655,12510.0,37.5461701,127.5821614,20191012,2019,10,12,26708
18,간절곶해맞이,울산광역시,울주군,3171031025.0,서생면,317000000000.0,울산광역시 울주군 서생면 간절곶1길 39-2,45015.0,35.35903711,129.3606753,20191231,2019,12,31,25919
19,울주세계산악영화제,울산광역시,울주군,3171038034.0,상북면,317000000000.0,울산광역시 울주군 상북면 알프스온천5길 103-8,44952.0,35.556348,129.06760400000002,20200403,2020,4,3,23539
20,우시산국축제,울산광역시,울주군,3171034021.0,웅촌면,317000000000.0,울산광역시 울주군 웅촌면 새초천길 85,44966.0,35.463038,129.213965,20200406,2020,4,6,6402
21,제2회 비아마을 큰잔치,광주광역시,광산구,2920011200.0,비아동,292000000000.0,광주광역시 광산구 비아중앙로 23-6 (비아동),62238.0,35.22109520000001,126.8244895,20171021,2017,10,21,22199
22,첨단1동 마을축제,광주광역시,광산구,2920011600.0,쌍암동,292000000000.0,광주광역시 광산구 첨단중앙로182번길 39 (쌍암동),62274.0,35.222211,126.8443276,20171014,2017,10,14,8288
23,광산우리밀축제,광주광역시,광산구,2920011100.0,박호동,292000000000.0,광주광역시 광산구 박호등임로 95 (박호동),62398.0,35.163167200000004,126.7399623,20170526,2017,5,26,26610
24,제5회 광산구 세계음식문화축제,광주광역시,광산구,2920012300.0,장덕동,292000000000.0,광주광역시 광산구 장신로82번길 57 (장덕동),62225.0,35.188055299999995,126.8201971,20170521,2017,5,21,17488
25,봉숫골 꽃나들이 축제,경상남도,통영시,4822011700.0,도남동,482000000000.0,경상남도 통영시 도남로 185 (도남동),53074.0,34.82960109,128.4243196,20200328,2020,3,28,19778
26,통영한산대첩축제,경상남도,통영시,4822011700.0,도남동,482000000000.0,경상남도 통영시 도남로 296-1,53079.0,34.82567453,128.4334058,20200811,2020,8,11,2817
27,한산도 바다체험축제,경상남도,통영시,4822036025.0,한산면,482000000000.0,경상남도 통영시 한산면 봉암1길 205-8,53093.0,34.75930638,128.5100671,20200620,2020,6,20,14025
28,2019 고양호수예술축제,경기도,고양시 일산동구,4128510400.0,장항동,413000000000.0,경기도 고양시 일산동구 호수로 595 (장항동),10400.0,37.65384593,126.7687814,20191003,2019,10,3,24871
29,2019 고양행주문화제,경기도,고양시 덕양구,4128112600.0,행주외동,413000000000.0,경기도 고양시 덕양구 행주로15번길 89 (행주외동),10440.0,37.59564085,126.8268514,20190525,2019,5,25,3689
30,노루목 봄 페스티벌 <ㅍㅍㅍ페스티벌>,경기도,고양시 일산동구,4128510500.0,마두동,413000000000.0,경기도 고양시 일산동구 중앙로 1286 (마두동),10409.0,37.66148641,126.7744561,20190525,2019,5,25,7364
31,신바람난 뮤지엄 페스티벌,경기도,고양시 덕양구,4128112300.0,화정동,413000000000.0,경기도 고양시 덕양구 화중로 26 (화정동),10503.0,37.62946909,126.8309509,20190504,2019,5,4,16804
32,2018 안산 김홍도축제,경기도,안산시 단원구,4127310700.0,초지동,413000000000.0,경기도 안산시 단원구 동산로 268 (초지동),15385.0,37.325674,126.813771,20181012,2018,10,12,23517
33,안산사이언스밸리(ASV) 과학축제,경기도,안산시 상록구,4127110300.0,사동,413000000000.0,경기도 안산시 상록구 한양대학로 55 (사동),15588.0,37.298004,126.834393,20181020,2018,10,20,6469
34,제11주년 세계인의 날 기념행사,경기도,안산시 단원구,4127310700.0,초지동,413000000000.0,경기도 안산시 단원구 동산로 268 (초지동),15385.0,37.325674,126.813771,20181104,2018,11,4,19432
35,제15회 창녕낙동강유채축제,경상남도,창녕군,4874025321.0,남지읍,487000000000.0,경상남도 창녕군 남지읍 낙동로 483,50359.0,35.389081,128.477232,20190409,2019,4,9,17902
36,안산국제거리극축제,경기도,안산시 단원구,4127310100.0,고잔동,413000000000.0,경기도 안산시 단원구 광덕대로 157 (고잔동),15471.0,37.310742,126.829822,20190504,2019,5,4,11409
37,별빛달빛놀이터,경기도,안산시 단원구,4127310700.0,초지동,413000000000.0,경기도 안산시 단원구 화정천서로 369 (초지동),15385.0,37.330422,126.816788,20190517,2019,5,17,19983
38,청소년의달 기념행사 <열정유>,경기도,안산시 단원구,4127310700.0,초지동,413000000000.0,경기도 안산시 단원구 화정천서로 369 (초지동),15385.0,37.330422,126.816788,20190519,2019,5,19,7062
39,악양대봉감축제,경상남도,하동군,4885032034.0,악양면,489000000000.0,경상남도 하동군 악양면 섬진강대로 3145-2,52307.0,35.13592935,127.6914855,20200101,2020,1,1,10687
40,거제 섬꽃축제,경상남도,거제시,4831034026.0,거제면,483000000000.0,경상남도 거제시 거제면 거제남서로 3577,53285.0,34.85656738,128.579596,20191026,2019,10,26,2328
41,금호강 바람소리길 축제,대구광역시,북구,2723011100.0,산격동,272000000000.0,대구광역시 북구 연암로42길 61,41502.0,35.90663896,128.6005355,20190928,2019,9,28,9165
42,대구국제패션문화페스티벌,대구광역시,북구,2723010600.0,침산동,272000000000.0,대구광역시 북구 호암로 51 (침산동),41585.0,35.88368816,128.5959763,20191012,2019,10,12,13266
43,제5회 상록수문화제,경기도,안산시 상록구,4127110400.0,본오동,413000000000.0,경기도 안산시 상록구 샘골서길 64 (본오동),15539.0,37.299644,126.8627,20170916,2017,9,16,2789
44,2017 안산시 평생학습 박람회 & 제7회 안산시도서관책문화축제,경기도,안산시 단원구,4127310100.0,고잔동,413000000000.0,경기도 안산시 단원구 광덕대로 206 (고잔동),15462.0,37.314701,126.831212,20171014,2017,10,14,18751
45,안산국제거리극축제,경기도,안산시 단원구,4127310100.0,고잔동,413000000000.0,경기도 안산시 단원구 광덕대로 157 (고잔동),15471.0,37.310742,126.829822,20180505,2018,5,5,16826
46,여르미오페스티벌,경기도,안산시 단원구,4127310100.0,고잔동,413000000000.0,경기도 안산시 단원구 화랑로 312 (고잔동),15355.0,37.318426,126.823108,20180804,2018,8,4,4678
47,제6회 상록수문화제,경기도,안산시 상록구,4127110400.0,본오동,413000000000.0,경기도 안산시 상록구 샘골서길 64 (본오동),15539.0,37.299644,126.8627,20180915,2018,9,15,8351
48,2018 안산시 평생학습 한마당 & 제8회 안산시도서관책문화축제,경기도,안산시 상록구,4127110300.0,사동,413000000000.0,경기도 안산시 상록구 해안로 561 (사동),15592.0,37.298403,126.819135,20181009,2018,10,9,3440
49,대구국제오페라축제,대구광역시,북구,2723010200.0,칠성동2가,272000000000.0,대구광역시 북구 호암로 15 (칠성동2가),41585.0,35.883463899999995,128.5922335,20190913,2019,9,13,21193
50,대구국제재즈축제,대구광역시,중구,2711015600.0,남산동,271000000000.0,대구광역시 중구 중앙대로 273 (남산동),41968.0,35.8579242,128.5906996,20190919,2019,9,19,23149
51,2019컬러풀대구페스티벌,대구광역시,중구,2711010100.0,동인동1가,271000000000.0,대구광역시 중구 공평로 88 (동인동1가),41911.0,35.87155388,128.60121999999998,20190504,2019,5,4,10960
52,국제보디페인팅축제,대구광역시,달서구,2729010200.0,두류동,273000000000.0,대구광역시 달서구 공원순환로 46 (두류동),42672.0,35.85086313,128.5576665,20190824,2019,8,24,21262
53,대구국제호러페스티벌,대구광역시,수성구,2726012700.0,대흥동,273000000000.0,대구광역시 수성구 유니버시아드로 180 (대흥동),42250.0,35.82976978,128.69016299999998,20190802,2019,8,2,26621
54,대구치맥페스티벌,대구광역시,달서구,2729010200.0,두류동,273000000000.0,대구광역시 달서구 공원순환로 7 (두류동),42672.0,35.85074648,128.5616534,20190717,2019,7,17,26321
55,대구포크페스티벌,대구광역시,동구,2714010200.0,신천동,271000000000.0,대구광역시 동구 동대구로 461 (신천동),41260.0,35.87142055,128.6248352,20190726,2019,7,26,5037
56,대구약령시한방문화축제,대구광역시,중구,2711013700.0,남성로,271000000000.0,대구광역시 중구 달구벌대로415길 49 (남성로),41934.0,35.86851768,128.5899105,20190502,2019,5,2,29597
57,형형색색달구벌관등놀이,대구광역시,남구,2720010300.0,대명동,272000000000.0,대구광역시 남구 중앙대로51길 11 (대명동),42410.0,35.85619572,128.5897529,20190427,2019,4,27,25754
58,동아시아보자기페스티벌,대구광역시,북구,2723010600.0,침산동,272000000000.0,대구광역시 북구 호암로 51 (침산동),41585.0,35.88368816,128.5959763,20190928,2019,9,28,23259
59,대구국제뮤지컬페스티벌,대구광역시,북구,2723010600.0,침산동,272000000000.0,대구광역시 북구 호암로 51 (침산동),41585.0,35.88368816,128.5959763,20190621,2019,6,21,27715
60,제8회 세계인형음악극축제,경상북도,칠곡군,4785025022.0,왜관읍,479000000000.0,경상북도 칠곡군 왜관읍 관문로1길 32,39872.0,35.99199957,128.4173003,20190822,2019,8,22,3541
61,제7회 낙동강세계평화문화 대축전,경상북도,칠곡군,4785025625.0,석적읍,479000000000.0,경상북도 칠곡군 석적읍 석적로 226,39848.0,36.019199,128.401401,20191011,2019,10,11,19680
62,제6회 낙동강세계평화 문화대축전,경상북도,칠곡군,4785025625.0,석적읍,479000000000.0,경상북도 칠곡군 석적읍 강변대로 1580,39848.0,36.018230700000004,128.4011405,20181012,2018,10,12,19725
63,제7회 칠곡 세계 인형음악극 축제,경상북도,칠곡군,4785025022.0,왜관읍,479000000000.0,경상북도 칠곡군 왜관읍 관문로1길 32,39872.0,35.99199957,128.4173003,20180823,2018,8,23,21441
64,제5회 낙동강세계평화 문화대축전,경상북도,칠곡군,4785025625.0,석적읍,479000000000.0,경상북도 칠곡군 석적읍 강변대로 1580,39848.0,36.018230700000004,128.4011405,20170922,2017,9,22,23503
65,제6회 칠곡 세계 인형음악극 축제,경상북도,칠곡군,4785025022.0,왜관읍,479000000000.0,경상북도 칠곡군 왜관읍 관문로1길 32,39872.0,35.99199957,128.4173003,20170824,2017,8,24,14862
66,제4회 낙동강세계평화 문화대축전,경상북도,칠곡군,4785025625.0,석적읍,479000000000.0,경상북도 칠곡군 석적읍 강변대로 1580,39848.0,36.018230700000004,128.4011405,20160930,2016,9,30,3776
67,제5회 칠곡 세계 인형음악극 축제,경상북도,칠곡군,4785025022.0,왜관읍,479000000000.0,경상북도 칠곡군 왜관읍 관문로1길 32,39872.0,35.99199957,128.4173003,20160826,2016,8,26,19665
68,제3회 낙동강세계평화 문화대축전,경상북도,칠곡군,4785025625.0,석적읍,479000000000.0,경상북도 칠곡군 석적읍 강변대로 1580,39848.0,36.018230700000004,128.4011405,20151015,2015,10,15,23040
69,제4회 칠곡 세계 인형음악극 축제,경상북도,칠곡군,4785025022.0,왜관읍,479000000000.0,경상북도 칠곡군 왜관읍 관문로1길 32,39872.0,35.99199957,128.4173003,20150827,2015,8,27,20431
70,하동북천꽃양귀비축제,경상남도,하동군,4885039023.0,북천면,489000000000.0,경상남도 하동군 북천면 경서대로 2253-21,52318.0,35.11101547,127.8741645,20200101,2020,1,1,28891
71,효문화뿌리축제,대전광역시,중구,3014011900.0,안영동,301000000000.0,대전광역시 중구 뿌리공원로 47 (안영동),35074.0,36.2859869,127.3836984,20190927,2019,9,27,10174
72,청천환경문화축제,충청북도,괴산군,4376036022.0,청천면,438000000000.0,충청북도 괴산군 청천면 괴산로 1248,28063.0,36.65503541,127.74548529999998,20180804,2018,8,4,15283
73,괴산고추축제,충청북도,괴산군,4376025022.0,괴산읍,438000000000.0,충청북도 괴산군 괴산읍 임꺽정로 90,28026.0,36.81574779,127.7875348,20190829,2019,8,29,26934
74,목도백중놀이,충청북도,괴산군,4376031023.0,감물면,438000000000.0,충청북도 괴산군 감물면 감물로이담5길 125,28004.0,36.87799674,127.8580104,20181005,2018,10,5,20188
75,연풍조령제 및 자전거문화축제,충청북도,괴산군,4376033022.0,연풍면,438000000000.0,충청북도 괴산군 연풍면 향교로 55,28013.0,36.76687438,128.0002915,20181012,2018,10,12,6587
76,백마권역겨울놀이축제,충청북도,괴산군,4376039024.0,사리면,438000000000.0,충청북도 괴산군 사리면 사리로 517,28045.0,36.83880878,127.65104209999998,20190104,2019,1,4,20496
77,강원아트페어춘천전,강원도,춘천시,4211010700.0,옥천동,421000000000.0,강원도 춘천시 서부대성로 71,24264.0,37.8824701,127.731333,20190611,2019,6,11,23724
78,춘천국제고음악제,강원도,춘천시,4211010900.0,죽림동,421000000000.0,강원도 춘천시 중앙로77번길 35,24354.0,37.8774474,127.7288095,20190921,2019,9,21,27324
79,장수 한우랑 사과랑 축제,전라북도,장수군,4574025027.0,장수읍,457000000000.0,전라북도 장수군 장수읍 한누리로 393,55638.0,35.6411154,127.5181094,20201029,2020,10,29,1776
80,인천 원도사제,인천광역시,미추홀구,2817710200.0,용현동,282000000000.0,인천광역시 미추홀구 용정공원로 28 (용현동),22187.0,37.4506785,126.642827,20201009,2020,10,9,27263
81,제28회 함안낙화놀이,경상남도,함안군,4873031023.0,함안면,487000000000.0,경상남도 함안군 함안면 괴산4길 25,52051.0,35.25542023,128.42274740000002,20190512,2019,5,12,6101
82,무술년 삼칠민속줄다리기,경상남도,함안군,4873025321.0,칠원읍,487000000000.0,경상남도 함안군 칠원읍 원서로 4,52017.0,35.30883803,128.5185567,20190329,2019,3,29,24803
83,제32회 함안아라문화제,경상남도,함안군,4873025024.0,가야읍,487000000000.0,경상남도 함안군 가야읍 함안대로 619,52036.0,35.28326216,128.4001528,20190426,2019,4,26,5930
84,울산옹기축제,울산광역시,울주군,3171025630.0,온양읍,317000000000.0,울산광역시 울주군 온양읍 외고산3길 36,44970.0,35.435069,129.2795088,20200501,2020,5,1,5399
85,장미꽃 필(feel)무렵,대구광역시,달서구,2729010800.0,이곡동,273000000000.0,대구광역시 달서구 선원남로 129 (이곡동),42615.0,35.85741363,128.51446299999998,20200515,2020,5,15,3155
86,달서가족축제,대구광역시,달서구,2729011900.0,대천동,273000000000.0,대구광역시 달서구 성서공단로 40 (대천동),42716.0,35.83282135,128.48723590000003,20200505,2020,5,5,1236
87,제3회 상록수문화제,경기도,안산시 상록구,4127110400.0,본오동,413000000000.0,경기도 안산시 상록구 샘골서길 64 (본오동),15539.0,37.299644,126.8627,20150919,2015,9,19,4827
88,안산시도서관책문화축제,경기도,안산시 상록구,4127110300.0,사동,413000000000.0,경기도 안산시 상록구 해안로 561 (사동),15592.0,37.298403,126.819135,20151024,2015,10,24,4045
89,안산국제거리극축제,경기도,안산시 단원구,4127310100.0,고잔동,413000000000.0,경기도 안산시 단원구 광덕대로 157 (고잔동),15471.0,37.310742,126.829822,20160505,2016,5,5,1575
90,2019 무한청춘 페스티벌,강원도,춘천시,4211011200.0,효자동,421000000000.0,강원도 춘천시 효자상길5번길 13 (효자동),24336.0,37.87261489,127.7293399,20190906,2019,9,6,2557
91,문화의거리 문화한마당,강원도,춘천시,4211011200.0,효자동,421000000000.0,강원도 춘천시 춘천로 112 (효자동),24336.0,37.8734185,127.7278377,20190817,2019,8,17,3149
92,제9회 세계인의 날 기념행사,경기도,안산시 단원구,4127310800.0,원곡동,413000000000.0,경기도 안산시 단원구 부부로 43 (원곡동),15377.0,37.332436,126.790343,20160522,2016,5,22,17416
93,여르미오페스티벌,경기도,안산시 단원구,4127310100.0,고잔동,413000000000.0,경기도 안산시 단원구 화랑로 312 (고잔동),15355.0,37.318426,126.823108,20160813,2016,8,13,15434
94,제4회 상록수문화제,경기도,안산시 상록구,4127110400.0,본오동,413000000000.0,경기도 안산시 상록구 샘골서길 64 (본오동),15539.0,37.299644,126.8627,20160910,2016,9,10,18336
95,2016 평생학습 박람회 & 제6회 도서관책문화축제,경기도,안산시 상록구,4127110300.0,사동,413000000000.0,경기도 안산시 상록구 해안로 561 (사동),15592.0,37.298403,126.819135,20161001,2016,10,1,9873
96,안산국제거리극축제,경기도,안산시 단원구,4127310100.0,고잔동,413000000000.0,경기도 안산시 단원구 광덕대로 157 (고잔동),15471.0,37.310742,126.829822,20170505,2017,5,5,22268
97,제10주년 세계인의 날 기념행사,경기도,안산시 단원구,4127310100.0,고잔동,413000000000.0,경기도 안산시 단원구 광덕대로 157 (고잔동),15471.0,37.310742,126.829822,20170521,2017,5,21,8424
98,거제 옥포대첩 축제,경상남도,거제시,4831010600.0,옥포동,483000000000.0,경상남도 거제시 팔랑포2길 87,53214.0,34.90219568,128.7140612,20190614,2019,6,14,17168
99,문광은행나무마을축제,충청북도,괴산군,4376035027.0,문광면,438000000000.0,충청북도 괴산군 문광면 괴산로양곡5길 113-2,28056.0,36.77352068,127.7424552,20181020,2018,10,20,15450
100,감물감자축제,충청북도,괴산군,4376031021.0,감물면,438000000000.0,충청북도 괴산군 감물면 남양동길 38,28006.0,36.83949451,127.8710463,20190622,2019,6,22,20378
101,괴산올갱이축제,충청북도,괴산군,4376034026.0,칠성면,438000000000.0,충청북도 괴산군 칠성면 둔율길 142,28019.0,36.78303875,127.8487774,20180817,2018,8,17,4240
102,제50회 아림예술제,경상남도,거창군,4888025032.0,거창읍,489000000000.0,경상남도 거창군 거창읍 심소정길 39-36,50126.0,35.69209413,127.9290614,20200924,2020,9,24,7537
103,거창한마당대축제,경상남도,거창군,4888025032.0,거창읍,489000000000.0,경상남도 거창군 거창읍 심소정길 39-36,50126.0,35.69209413,127.9290614,20200924,2020,9,24,26215
104,마임교실 운영지원,강원도,춘천시,4211011200.0,효자동,421000000000.0,강원도 춘천시 춘천로 112 (효자동),24336.0,37.8734185,127.7278377,20190507,2019,5,7,21325
105,전국합창경연대회,강원도,춘천시,4211010200.0,요선동,421000000000.0,강원도 춘천시 중앙로 40-1 (요선동),24272.0,37.8785527,127.7260249,20190823,2019,8,23,1392
106,전국관악경연대회,강원도,춘천시,4211010200.0,요선동,421000000000.0,강원도 춘천시 중앙로 40-1 (요선동),24272.0,37.8785527,127.7260249,20190820,2019,8,20,29253
107,춘천인음악회,강원도,춘천시,4211012400.0,석사동,421000000000.0,강원도 춘천시 공지로 111,24389.0,37.8564737,127.7467644,20190629,2019,6,29,2170
108,2018 종로한복축제,서울특별시,종로구,1111011900.0,세종로,111000000000.0,서울특별시 종로구 세종로 세종대로 175,3172.0,37.572701,126.976924,20181005,2018,10,5,7219
109,북천코스모스메밀꽃축제,경상남도,하동군,4885039023.0,북천면,489000000000.0,경상남도 하동군 북천면 경서대로 2253-21,52318.0,35.11101547,127.8741645,20200101,2020,1,1,26964
110,세종마을 세종주간 축제,서울특별시,종로구,1111010900.0,누상동,111000000000.0,서울특별시 종로구 옥인3길 14 (누상동),3038.0,37.580743,126.966012,20181003,2018,10,3,24463
111,세종탄신 620돌 축하연,서울특별시,종로구,1111011100.0,옥인동,111000000000.0,서울특별시 종로구 필운대로 51,3034.0,37.580568,126.968676,20180515,2018,5,15,22577
112,금호강 정월대보름 축제,대구광역시,북구,2723011100.0,산격동,272000000000.0,대구광역시 북구 연암로42길 61,41502.0,35.90663896,128.6005355,20190219,2019,2,19,25694
113,해맞이 행사,대구광역시,북구,2723012300.0,구암동,272000000000.0,대구광역시 북구 구암로 238,41472.0,35.93228847,128.5675195,20190101,2019,1,1,13905
114,토지문학제,경상남도,하동군,4885032034.0,악양면,489000000000.0,경상남도 하동군 악양면 평사리길 35,52307.0,35.15301698,127.6892639,20200101,2020,1,1,28879
115,안산국제거리극축제,경기도,안산시 단원구,4127310100.0,고잔동,413000000000.0,경기도 안산시 단원구 광덕대로 157 (고잔동),15471.0,37.310742,126.829822,20150501,2015,5,1,12841
116,제8회 세계인의 날 기념행사,경기도,안산시 단원구,4127310800.0,원곡동,413000000000.0,경기도 안산시 단원구 부부로 43 (원곡동),15377.0,37.332436,126.790343,20150517,2015,5,17,9032
117,제99주년 3·1만세의 날 거리축제,서울특별시,종로구,1111013600.0,인사동,111000000000.0,서울특별시 종로구 인사동길 6 (인사동),3163.0,37.571532,126.987288,20180301,2018,3,1,23488
118,단기4351년 개천절 대제전,서울특별시,종로구,1111011500.0,사직동,111000000000.0,서울특별시 종로구 인왕산로 22 (사직동),3027.0,37.576312,126.965851,20181003,2018,10,3,23807
119,단기4351년 어천절 대제전,서울특별시,종로구,1111011500.0,사직동,111000000000.0,서울특별시 종로구 인왕산로 22 (사직동),3027.0,37.576312,126.965851,20180315,2018,3,15,9614
120,D.FESTA 대학로 거리공연축제,서울특별시,종로구,1111016800.0,동숭동,111000000000.0,서울특별시 종로구 동숭4길 15,3084.0,37.583488,127.004425,20180517,2018,5,17,19457
121,금난새와 함께하는 종로 음악회,서울특별시,종로구,1111011900.0,세종로,111000000000.0,서울특별시 종로구 세종대로 175 (세종로),3172.0,37.572525,126.975793,20180830,2018,8,30,7158
122,밀양아리랑대축제,경상남도,밀양시,4827010100.0,내일동,483000000000.0,경상남도 밀양시 중앙로 324 (내일동),50431.0,35.49154179999999,128.7551172,20170518,2017,5,18,16882
123,안산M밸리록페스티벌,경기도,안산시 단원구,4127311100.0,대부북동,413000000000.0,경기도 안산시 단원구 대부황금로 1490 (대부북동),15638.0,37.287067,126.575056,20150724,2015,7,24,21970
124,여르미오페스티벌,경기도,안산시 단원구,4127310100.0,고잔동,413000000000.0,경기도 안산시 단원구 광덕대로 157 (고잔동),15471.0,37.310742,126.829822,20150808,2015,8,8,5000
125,안산 대부포도축제,경기도,안산시 단원구,4127311100.0,대부북동,413000000000.0,경기도 안산시 단원구 대부황금로 1490 (대부북동),15638.0,37.287067,126.575056,20150912,2015,9,12,16427
126,화개장터벚꽃축제,경상남도,하동군,4885031023.0,화개면,489000000000.0,경상남도 하동군 화개면 쌍계로 58,52303.0,35.19153344,127.6267851,20200101,2020,1,1,14233
127,알프스하동섬진강재첩축제,경상남도,하동군,4885025022.0,하동읍,489000000000.0,경상남도 하동군 하동읍 섬진강대로 2107-8,52332.0,35.0633744,127.7433308,20200101,2020,1,1,20176
128,하동야생차문화축제,경상남도,하동군,4885031026.0,화개면,489000000000.0,경상남도 하동군 화개면 쌍계로 571-25,52302.0,35.22773053,127.6426922,20200101,2020,1,1,6615
129,제7회 도심 속 바다축제,서울특별시,동작구,1159010100.0,노량진동,116000000000.0,서울특별시 동작구 노들로 674 (노량진동),6900.0,37.51482396,126.9379739,20191012,2019,10,12,9589
130,제34회 비사벌문화제,경상남도,창녕군,4874025037.0,창녕읍,487000000000.0,경상남도 창녕군 창녕읍 학천길 13,50329.0,35.53835896,128.4987294,20201002,2020,10,2,18337
131,제37회 부곡온천축제,경상남도,창녕군,4874042022.0,부곡면,487000000000.0,경상남도 창녕군 부곡면 원앙로 184,50365.0,35.43772692,128.5886091,20190402,2019,4,2,17134
132,영동곶감축제,충청북도,영동군,4374025027.0,영동읍,437000000000.0,충청북도 영동군 영동읍 영동황간로 122,29150.0,36.16401536,127.7819468,20210101,2021,1,1,29372
133,영동국악과일와인축제,충청북도,영동군,4374025027.0,영동읍,437000000000.0,충청북도 영동군 영동읍 영동황간로 122,29150.0,36.16401536,127.7819468,20200901,2020,9,1,20012
134,여주도자기축제(일자미정),경기도,여주시,4167012000.0,천송동,417000000000.0,경기도 여주시 신륵사길 7 (천송동),12636.0,37.30014441,127.65454640000002,20190427,2019,4,27,1017
135,여주오곡나루축제(일자미정),경기도,여주시,4167012000.0,천송동,417000000000.0,경기도 여주시 신륵사길 7 (천송동),12636.0,37.30014441,127.65454640000002,20191018,2019,10,18,19369
136,성주생명문화축제 성주참외페스티벌,경상북도,성주군,4784025021.0,성주읍,478000000000.0,경상북도 성주군 성주읍 성밖숲길 30,40023.0,35.91576102,128.2800492,20190516,2019,5,16,6618
137,충주농산물한마당축제,충청북도,충주시,4313012800.0,금릉동,431000000000.0,충청북도 충주시 남한강로 24 (금릉동),27438.0,36.98782919,127.9055691,20201001,2020,10,1,21721
138,제16회 제천국제음악영화제,충청북도,제천시,4315032046.0,청풍면,432000000000.0,충청북도 제천시 청풍면 청풍호로50길 6,27215.0,37.01083356,128.1811895,20200813,2020,8,13,25347
139,제25회 오장환문학제,충청북도,보은군,4372038521.0,회인면,437000000000.0,충청북도 보은군 회인면 회인로5길 12,28929.0,36.4933575,127.5964471,20201001,2020,10,1,20410
140,제45회 중봉충렬제,충청북도,옥천군,4373032027.0,안남면,437000000000.0,충청북도 옥천군 안남면 도농1길 71-1,29009.0,36.38071082,127.6893425,20201015,2020,10,15,7662
141,안산시도서관책문화축제,경기도,안산시 상록구,4127110300.0,사동,413000000000.0,경기도 안산시 상록구 해안로 561 (사동),15592.0,37.298403,126.819135,20141014,2014,10,14,21363
142,대구 글로벌게임문화축제 e-Fun,대구광역시,수성구,2726012700.0,대흥동,273000000000.0,대구광역시 수성구 알파시티1로 170 (대흥동),42250.0,35.83541672,128.6817838,20190831,2019,8,31,21457
143,팔공산 산중전통장터 승시,대구광역시,동구,2714013400.0,도학동,271000000000.0,대구광역시 동구 동화사1길 1 (도학동),41007.0,35.98450098,128.6987706,20191005,2019,10,5,10530
144,고서포도축제,전라남도,담양군,4671032029.0,고서면,467000000000.0,전라남도 담양군 고서면 가사문학로 325,57385.0,35.22370105,126.97293909999998,20210720,2021,7,20,21935
145,가로수사랑음악회,전라남도,담양군,4671025023.0,담양읍,467000000000.0,전라남도 담양군 담양읍 지침3길 7-5,57344.0,35.31617363,126.9840063,20201103,2020,11,3,21291
146,창평전통음식문화축제,전라남도,담양군,4671034021.0,창평면,467000000000.0,전라남도 담양군 창평면 돌담길 56-24,57389.0,35.23525084,127.017861,20201026,2020,10,26,1055
147,추월산벚꽃축제,전라남도,담양군,4671038023.0,용면,467000000000.0,전라남도 담양군 용면 추월산로 369,57302.0,35.36449265,126.9872053,20200407,2020,4,7,18398
148,담양산타축제,전라남도,담양군,4671025024.0,담양읍,467000000000.0,전라남도 담양군 담양읍 추성로 1371,57339.0,35.32121077,126.98817549999998,20201211,2020,12,11,12518
149,담양대나무축제,전라남도,담양군,4671025024.0,담양읍,467000000000.0,전라남도 담양군 담양읍 추성로 1371,57339.0,35.32121077,126.98817549999998,20200430,2020,4,30,29984
150,괴산고추축제,충청북도,괴산군,4376025022.0,괴산읍,438000000000.0,충청북도 괴산군 괴산읍 임꺽정로 75,28026.0,36.81344157,127.7885377,20200903,2020,9,3,2598
151,괴산김장축제,충청북도,괴산군,4376025022.0,괴산읍,438000000000.0,충청북도 괴산군 괴산읍 임꺽정로 75,28026.0,36.81344157,127.7885377,20201106,2020,11,6,29288
152,괴산유기농페스티벌,충청북도,괴산군,4376025022.0,괴산읍,438000000000.0,충청북도 괴산군 괴산읍 임꺽정로 75,28026.0,36.81344157,127.7885377,20201016,2020,10,16,29082
153,제24회 단양 온달문화축제,충청북도,단양군,4380033022.0,영춘면,438000000000.0,충청북도 단양군 영춘면 온달로 23,27020.0,37.06295564,128.4929221,20201023,2020,10,23,23740
154,2020 청원생명축제,충청북도,청주시 청원구,4311425347.0,오창읍,431000000000.0,충청북도 청주시 청원구 오창읍 미래지로 99,28107.0,36.73315885,127.40740259999998,20200918,2020,9,18,6611
155,제2회 상록수문화제,경기도,안산시 상록구,4127110400.0,본오동,413000000000.0,경기도 안산시 상록구 샘골서길 64 (본오동),15539.0,37.299644,126.8627,20140927,2014,9,27,21655
156,제17회 고양 연등문화축제,경기도,고양시 덕양구,4128112300.0,화정동,413000000000.0,경기도 고양시 덕양구 화신로260번길 26 (화정동),10500.0,37.63173966,126.832994,20190501,2019,5,1,22660
157,구로G페스티벌,서울특별시,구로구,1153010200.0,구로동,115000000000.0,서울특별시 구로구 경인로53길 15,8217.0,37.501473,126.872383,20200901,2020,9,1,23324
158,지용제,충청북도,옥천군,4373025024.0,옥천읍,437000000000.0,충청북도 옥천군 옥천읍 향수길 56,29030.0,36.31501588,127.5815719,20201015,2020,10,15,2945
159,청남대 재즈토닉 페스티벌,충청북도,청주시 상당구,4311135032.0,문의면,431000000000.0,충청북도 청주시 상당구 문의면 청남대길 646,28210.0,36.46224737,127.49009479999998,20200828,2020,8,28,5257
160,청주읍성큰잔치,충청북도,청주시 상당구,4311110600.0,남문로2가,431000000000.0,충청북도 청주시 상당구 상당로55번길 33 (남문로2가),28529.0,36.63285683,127.4887893,20200905,2020,9,5,17924
161,2020 직지코리아 페스티벌,충청북도,청주시 흥덕구,4311310400.0,운천동,431000000000.0,충청북도 청주시 흥덕구 직지대로 713 (운천동),28472.0,36.6439745,127.4714597,20200902,2020,9,2,9764
162,제1회 상록수문화제,경기도,안산시 상록구,4127110400.0,본오동,413000000000.0,경기도 안산시 상록구 샘골서길 64 (본오동),15539.0,37.299644,126.8627,20130831,2013,8,31,27773
163,제14회 거창단오제,경상남도,거창군,4888025027.0,거창읍,489000000000.0,경상남도 거창군 거창읍 수남로 2193-40,50147.0,35.67353068,127.90942,20200625,2020,6,25,13607
164,제15회 거창전국 한시백일장대회,경상남도,거창군,4888025027.0,거창읍,489000000000.0,경상남도 거창군 거창읍 수남로 2193-40,50147.0,35.67353068,127.90942,20200625,2020,6,25,23724
165,삼척장미축제,강원도,삼척시,4223012500.0,정상동,422000000000.0,강원도 삼척시 오십천로 536 (정상동),25928.0,37.43501045,129.1752024,20190515,2019,5,15,17494
166,삼척비치썸패스터벌,강원도,삼척시,4223010700.0,갈천동,422000000000.0,강원도 삼척시 테마타운길 19 (갈천동),25909.0,37.46667271,129.1705322,20190726,2019,7,26,27115
167,욕지 섬 문화축제,경상남도,통영시,4822035021.0,욕지면,482000000000.0,경상남도 통영시 욕지면 욕지일주로 77,53100.0,34.63336365,128.2650885,20201009,2020,10,9,3060
168,삼척동해왕이사부축제,강원도,삼척시,4223010600.0,교동,422000000000.0,강원도 삼척시 중앙로 296 (교동),25914.0,37.44988816,129.1656266,20191004,2019,10,4,29841
169,봄내예술제,강원도,춘천시,4211010700.0,옥천동,421000000000.0,강원도 춘천시 서부대성로 71 (옥천동),24264.0,37.88252734,127.731333,20190510,2019,5,10,24505
170,김유정추모제,강원도,춘천시,4211033024.0,신동면,421000000000.0,강원도 춘천시 신동면 김유정로 1430-14,24412.0,37.81831318,127.717698,20190329,2019,3,29,2679
171,춘천인형극제,강원도,춘천시,4211011900.0,사농동,421000000000.0,강원도 춘천시 영서로 3017 (사농동),24235.0,37.9210964,127.72010520000002,20190928,2019,9,28,28663
172,동작가족한마음축제,서울특별시,동작구,1159010900.0,신대방동,116000000000.0,서울특별시 동작구 여의대방로20길 33 (신대방동),7062.0,37.49040892,126.9179572,20191019,2019,10,19,13555
173,동작구 도서관 축제,서울특별시,동작구,1159010800.0,대방동,116000000000.0,서울특별시 동작구 노량진로 74 (대방동),6927.0,37.51272028,126.9333201,20200530,2020,5,30,20434
174,2020 동작복지나눔축제,서울특별시,동작구,1159010200.0,상도동,116000000000.0,서울특별시 동작구 상도로 369 (상도동),6978.0,37.496429600000006,126.9551598,20200905,2020,9,5,7398
175,삼척평생학습박람회,강원도,삼척시,4223011900.0,성남동,422000000000.0,강원도 삼척시 엑스포로 45 (성남동),25919.0,37.43896231,129.160145,20191019,2019,10,19,21324
176,"제9회 낙동강 구포나루 축제(잠정연기, 하반기 예정)",부산광역시,북구,2632010500.0,구포동,263000000000.0,부산광역시 북구 낙동대로1570번길 33 (구포동),46504.0,35.19688402,128.99009679999998,20190517,2019,5,17,17248
177,봉화은어축제,경상북도,봉화군,4792025031.0,봉화읍,479000000000.0,경상북도 봉화군 봉화읍 내성로5길 22-8,36238.0,36.8888791,128.73782509999998,20200801,2020,8,1,9902
178,봉화송이축제,경상북도,봉화군,4792025031.0,봉화읍,479000000000.0,경상북도 봉화군 봉화읍 내성로5길 22-8,36238.0,36.8888791,128.73782509999998,20201008,2020,10,8,21476
179,소양강문화제,강원도,춘천시,4211012300.0,퇴계동,421000000000.0,강원도 춘천시 퇴계농공로 40 (퇴계동),24420.0,37.849584,127.74364479999998,20190926,2019,9,26,17890
180,춘천연극제,강원도,춘천시,4211010700.0,옥천동,421000000000.0,강원도 춘천시 서부대성로 71 (옥천동),24264.0,37.88237557,127.731333,20190615,2019,6,15,20994
181,2020 부평풍물대축제,인천광역시,부평구,2823710100.0,부평동,282000000000.0,인천광역시 부평구 부평대로 69 (부평동),21388.0,37.49765011,126.7220754,20201016,2020,10,16,5319
182,광주 남한산성문화제,경기도,광주시,4161037021.0,남한산성면,416000000000.0,경기도 광주시 남한산성면 남한산성로792번길 7,12700.0,37.476835,127.1836325,20190927,2019,9,27,20700
183,광주왕실도자기축제,경기도,광주시,4161025936.0,곤지암읍,416000000000.0,경기도 광주시 곤지암읍 경충대로 727,12805.0,37.35028421,127.3347877,20200430,2020,4,30,2759
184,퇴촌토마토축제,경기도,광주시,4161034026.0,퇴촌면,416000000000.0,경기도 광주시 퇴촌면 오리길 104-11,12711.0,37.47269684,127.3014271,20200619,2020,6,19,21586
185,보성전어축제,전라남도,보성군,4678039027.0,회천면,468000000000.0,전라남도 보성군 회천면 우암길 24,59471.0,34.670029799999995,127.0890226,20190824,2019,8,24,29104
186,대둔산철쭉제,충청남도,논산시,4423038027.0,벌곡면,442000000000.0,충청남도 논산시 벌곡면 수락계곡길 248,33028.0,36.14380913,127.3048094,20190426,2019,4,26,12130
187,연산백중놀이,충청남도,논산시,4423036021.0,연산면,442000000000.0,충청남도 논산시 연산면 연산4길 10-7,32911.0,36.21626789,127.216075,20200902,2020,9,2,11734
188,상월고구마축제,충청남도,논산시,4423034027.0,상월면,442000000000.0,충청남도 논산시 상월면 상월로 522,32906.0,36.30682479,127.1897138,20200919,2020,9,19,10266
189,양촌곶감축제,충청남도,논산시,4423039027.0,양촌면,442000000000.0,충청남도 논산시 양촌면 이메길 25,33025.0,36.13116293,127.2453523,20191214,2019,12,14,22223
190,보성차밭 빛축제,전라남도,보성군,4678025024.0,보성읍,468000000000.0,전라남도 보성군 보성읍 녹차로 775,59448.0,34.71987670000001,127.081709,20201211,2020,12,11,17891
191,벌교꼬막축제,전라남도,보성군,4678025338.0,벌교읍,468000000000.0,전라남도 보성군 벌교읍 벌교천1길 19,59425.0,34.84476516,127.3464624,20191031,2019,10,31,19775
192,보성차밭 빛축제,전라남도,보성군,4678025024.0,보성읍,468000000000.0,전라남도 보성군 보성읍 녹차로 775,59448.0,34.71987670000001,127.081709,20201211,2020,12,11,25987
193,벌교꼬막축제,전라남도,보성군,4678025338.0,벌교읍,468000000000.0,전라남도 보성군 벌교읍 벌교천1길 19,59425.0,34.84476516,127.3464624,20191031,2019,10,31,13832
194,보성전어축제,전라남도,보성군,4678039027.0,회천면,468000000000.0,전라남도 보성군 회천면 우암길 24,59471.0,34.670029799999995,127.0890226,20190824,2019,8,24,5718
195,제24회 무안연꽃추제,전라남도,무안군,4684025331.0,일로읍,468000000000.0,전라남도 무안군 일로읍 백련로 333,58571.0,34.86008849,126.5298962,20200723,2020,7,23,14646
196,제8회 무안황토갯벌축제,전라남도,무안군,4684036021.0,해제면,468000000000.0,전라남도 무안군 해제면 용산길 140,58504.0,35.10332391,126.3319409,20200612,2020,6,12,2113
197,제27회 대덕제 대구앞산축제,대구광역시,남구,2720010300.0,대명동,272000000000.0,대구광역시 남구 앞산순환로 351-17 (대명동),42496.0,35.831799,128.5645966,20200425,2020,4,25,18296
198,진해군항제,경상남도,창원시 진해구,4812913400.0,평안동,481000000000.0,경상남도 창원시 진해구 백구로 58-1 (평안동),51676.0,35.149423,128.659757,20180401,2018,4,1,14536
199,정월대보름 행사,서울특별시,양천구,1147010100.0,신정동,115000000000.0,서울특별시 양천구 목동서로 363,8094.0,37.516601,126.863871,20190216,2019,2,16,20986
200,방아다리벗꽃축제,서울특별시,양천구,1147010100.0,신정동,115000000000.0,서울특별시 양천구 신정로7길 81-4 (신정동),8049.0,37.51356942,126.83337079999998,20190406,2019,4,6,15748
201,2020년 코로나로 인해 예정된 문화축제 없음,서울특별시,양천구,1147010100.0,신정동,115000000000.0,서울특별시 양천구 목동동로 105 (신정동),8095.0,37.51707502,126.866542,20200101,2020,1,1,17103
202,이원복의 먼나라 이웃나라 영국여행,울산광역시,동구,3117010100.0,방어동,312000000000.0,울산광역시 동구 문현3길 6 (방어동),44093.0,34.487175,128.411324,20200821,2020,8,21,12951
203,<그림읽어주는베토벤> 더 콘서트 I ‘고흐 & 고갱’,울산광역시,동구,3117010100.0,방어동,312000000000.0,울산광역시 동구 문현3길 6 (방어동),44093.0,35.487175,129.411324,20200828,2020,8,28,24812
204,박강수콘서트,울산광역시,동구,3117010100.0,방어동,312000000000.0,울산광역시 동구 문현3길 6 (방어동),44093.0,35.487175,129.411324,20200917,2020,9,17,8060
205,찬란한 황금빛 사운드 금관악기의 향연,울산광역시,동구,3117010100.0,방어동,312000000000.0,울산광역시 동구 문현3길 6 (방어동),44093.0,35.487175,129.411324,20200928,2020,9,28,4646
206,모두 다 함께 신명나게 놀자,울산광역시,동구,3117010100.0,방어동,312000000000.0,울산광역시 동구 문현3길 6 (방어동),44093.0,35.487175,129.411324,20201015,2020,10,15,27975
207,건반위 포핸즈의 아름다운 선율,울산광역시,동구,3117010100.0,방어동,312000000000.0,울산광역시 동구 문현3길 6 (방어동),44093.0,35.487175,129.411324,20201029,2020,10,29,26590
208,감동과 즐거움을 선사하는 성악 앙상블,울산광역시,동구,3117010100.0,방어동,312000000000.0,울산광역시 동구 문현3길 6 (방어동),44093.0,35.487175,129.411324,20201126,2020,11,26,25997
209,청소년 힐링 페스티벌,울산광역시,동구,3117010100.0,방어동,312000000000.0,울산광역시 동구 문현3길 6 (방어동),44093.0,35.487175,129.411324,20201210,2020,12,10,25796
210,매직스크린아트 가족극〈오버코트〉,울산광역시,동구,3117010100.0,방어동,312000000000.0,울산광역시 동구 문현3길 6 (방어동),44093.0,35.487175,129.411324,20201216,2020,12,16,21703
211,삼척정월대보름축제,강원도,삼척시,4223011900.0,성남동,422000000000.0,강원도 삼척시 엑스포로 45 (성남동),25919.0,37.43896231,129.160145,20200207,2020,2,7,26510
212,삼척맹방유채꽃축제,강원도,삼척시,4223031021.0,근덕면,422000000000.0,강원도 삼척시 근덕면 삼척로 3992-8,25932.0,37.405447,129.2050939,20190329,2019,3,29,28000
213,황영조 국제 마라톤 대회,강원도,삼척시,4223011900.0,성남동,422000000000.0,강원도 삼척시 엑스포로 45 (성남동),25919.0,37.43896231,129.160145,20190428,2019,4,28,18009
214,제12주년 세계인의 날 기념행사,경기도,안산시 단원구,4127310100.0,고잔동,413000000000.0,경기도 안산시 단원구 광덕대로 157 (고잔동),15471.0,37.310742,126.829822,20190519,2019,5,19,18372
215,청소년어울림마당 1회차,경기도,안산시 상록구,4127110800.0,성포동,413000000000.0,경기도 안산시 상록구 삼일로 696 (성포동),15293.0,37.326253,126.853291,20190601,2019,6,1,1531
216,청소년어울림마당 2회차,경기도,안산시 상록구,4127110800.0,성포동,413000000000.0,경기도 안산시 상록구 삼일로 696 (성포동),15293.0,37.326253,126.853291,20190720,2019,7,20,6271
217,그랑꼬또 와인 페스티벌,경기도,안산시 단원구,4127311100.0,대부북동,413000000000.0,경기도 안산시 단원구 뻐꾹산길 107 (대부북동),15640.0,37.257471,126.582545,20190830,2019,8,30,17620
218,청소년어울림마당 3회차,경기도,안산시 상록구,4127110800.0,성포동,413000000000.0,경기도 안산시 상록구 삼일로 696 (성포동),15293.0,37.326253,126.853291,20190928,2019,9,28,14902
219,제7회 상록수문화제,경기도,안산시 상록구,4127110400.0,본오동,413000000000.0,경기도 안산시 상록구 샘골서길 64 (본오동),15539.0,37.299644,126.8627,20191026,2019,10,26,9028
220,청소년어울림마당 4회차,경기도,안산시 상록구,4127110800.0,성포동,413000000000.0,경기도 안산시 상록구 삼일로 696 (성포동),15293.0,37.326253,126.853291,20191026,2019,10,26,2032
221,청소년어울림마당 5회차,경기도,안산시 상록구,4127110800.0,성포동,413000000000.0,경기도 안산시 상록구 삼일로 696 (성포동),15293.0,37.326253,126.853291,20191102,2019,11,2,29999
222,진해군악의장페스티벌,경상남도,창원시 진해구,4812910300.0,도만동,481000000000.0,경상남도 창원시 진해구 충무로 43 (도만동),51702.0,35.14836103,128.6554537,20180406,2018,4,6,25263
223,마산가고파국화축제,경상남도,창원시 마산합포구,4812513500.0,월포동,481000000000.0,경상남도 창원시 마산합포구 해안대로 148,51717.0,35.186741,128.564277,20181026,2018,10,26,19129
224,개항제례,경상남도,창원시 마산합포구,4812512500.0,신포동1가,481000000000.0,경상남도 창원시 마산합포구 수산2길 35 (신포동1가),51714.0,35.19757501,128.5719112,20180501,2018,5,1,1606
225,창원진동불꽃낙화축제,경상남도,창원시 마산합포구,4812532025.0,진동면,481000000000.0,경상남도 창원시 마산합포구 진동면 광암해안길 16-1,51791.0,35.10418995,128.4971465,20180415,2018,4,15,6893
226,야철제,경상남도,창원시 성산구,4812310400.0,외동,481000000000.0,경상남도 창원시 성산구 성산패총로 137 (외동),51534.0,35.20793223,128.67927350000002,20180630,2018,6,30,1819
227,남산상봉제,경상남도,창원시 의창구,4812110300.0,서상동,481000000000.0,경상남도 창원시 의창구 팔용로 494-37 (서상동),51369.0,35.25767299,128.6191963,20180929,2018,9,29,13655
228,세종대왕과 초정약수 축제,충청북도,청주시 청원구,4311425031.0,내수읍,431000000000.0,충청북도 청주시 청원구 내수읍 초정약수로 851,28148.0,36.721607,127.601269,20180525,2018,5,25,1029
229,제53회 황토현동학농민혁명기념제,전라북도,정읍시,4518036021.0,덕천면,452000000000.0,전라북도 정읍시 덕천면 동학로 742,56149.0,35.63130705,126.8313917,20200509,2020,5,9,3456
230,제31회 정읍사문화제,전라북도,정읍시,4518010400.0,시기동,452000000000.0,전라북도 정읍시 정읍사로 541 (시기동),56204.0,35.55073015,126.8615763,20200926,2020,9,26,28623
231,제14회 정읍 평생학습축제 및 제6회 주민자치 프로그램 발표회,전라북도,정읍시,4518010500.0,연지동,452000000000.0,전라북도 정읍시 중앙로 73 (연지동),56161.0,35.57039929,126.84890049999998,20201017,2020,10,17,5767
232,제15회 정읍 구절초꽃축제,전라북도,정읍시,4518043023.0,산내면,452000000000.0,전라북도 정읍시 산내면 청정로 926-65,56127.0,35.55427272,127.0188952,20200926,2020,9,26,29471
233,2020 정읍벚꽃축제,전라북도,정읍시,4518010400.0,시기동,452000000000.0,전라북도 정읍시 벚꽃로 401 (시기동),56164.0,35.561248,126.8557305,20200404,2020,4,4,24567
234,모란축제추진위원회,경기도,성남시 중원구,4113310100.0,성남동,411000000000.0,경기도 성남시 중원구 제일로35번길 51 (성남동),13366.0,37.4320045,127.1315674,20191001,2019,10,1,29979
235,은행골한마음잔치,경기도,성남시 중원구,4113310400.0,은행동,411000000000.0,경기도 성남시 중원구 순환로447번길 11 (은행동),13151.0,37.46123306,127.1707449,20190501,2019,5,1,18855
236,중원한마당축제,경기도,성남시 중원구,4113310300.0,금광동,411000000000.0,경기도 성남시 중원구 광명로 377 (금광동),13174.0,37.44885031,127.167697,20190901,2019,9,1,20040
237,분당구민 한마음 축제,경기도,성남시 분당구,4113510200.0,수내동,411000000000.0,경기도 성남시 분당구 성남대로 550 (수내동),13598.0,37.38030721,127.1211791,20191001,2019,10,1,8993
238,청계산철쭉축제,경기도,성남시 수정구,4113111300.0,상적동,411000000000.0,경기도 성남시 수정구 달래내로 407 (상적동),13442.0,37.42989648,127.0716316,20190427,2019,4,27,8547
239,수정숯골축제,경기도,성남시 수정구,4113110200.0,태평동,411000000000.0,경기도 성남시 수정구 수정로 233 (태평동),13282.0,37.44608464,127.1441445,20191001,2019,10,1,17112
240,벌터산 축제,경기도,성남시 수정구,4113110300.0,수진동,411000000000.0,경기도 성남시 수정구 산성대로 41,13315.0,37.4358321,127.1254889,20190401,2019,4,1,28225
241,당항포대첩축제,경상남도,고성군,4882040023.0,회화면,488000000000.0,경상남도 고성군 회화면 당항만로 1116,52915.0,35.05322615,128.39202759999998,20190426,2019,4,26,29136
242,함백산야생화축제,강원도,정선군,4277025321.0,고한읍,428000000000.0,강원도 정선군 고한읍 함백산로 865,26157.0,37.14853562,128.898962,20200808,2020,8,8,3709
243,민둥산억새꽃축제,강원도,정선군,4277032022.0,남면,428000000000.0,강원도 정선군 남면 민둥산로 7,26148.0,37.25494758,128.779595,20190927,2019,9,27,6968
244,정선아리랑제,강원도,정선군,4277025021.0,정선읍,428000000000.0,강원도 정선군 정선읍 봉양3길 17,26131.0,37.38024298,128.6602287,20200917,2020,9,17,14628
245,정월대보름달맞이축제,대구광역시,중구,2711010200.0,동인동2가,271000000000.0,대구광역시 중구 국채보상로139길 1 (동인동2가),41908.0,35.86932522,128.60615719999998,20110217,2011,2,17,8017
246,봉산도예전,대구광역시,중구,2711010800.0,봉산동,271000000000.0,대구광역시 중구 봉산문화2길 36,41959.0,35.863797,128.596776,20110407,2011,4,7,17444
247,「제34회 대구약령시 한방문화축제」,대구광역시,중구,2711011900.0,동성로3가,271000000000.0,대구광역시 중구 동성로3가 중앙대로 379-2,41936.0,35.86728621,128.5933489,20110503,2011,5,3,9935
248,동성로축제,대구광역시,중구,2711012300.0,동성로2가,271000000000.0,대구광역시 중구 동성로 28 (동성로2가),41938.0,35.869181,128.595424,20110520,2011,5,20,29209
249,대구화교중화문화축제,대구광역시,중구,2711011400.0,종로2가,271000000000.0,대구광역시 중구 중앙대로79길 31 (종로2가),41935.0,35.86904432,128.59206,20110830,2011,8,30,26586
250,중구미술협회전,대구광역시,중구,2711010800.0,봉산동,271000000000.0,대구광역시 중구 봉산문화길 77,41958.0,35.863373,128.5965657,20111004,2011,10,4,14445
251,봉산미술제,대구광역시,중구,2711010800.0,봉산동,271000000000.0,대구광역시 중구 봉산문화2길 36,41959.0,35.863797,128.596776,20111006,2011,10,6,12695
252,정월대보름달맞이축제,대구광역시,중구,2711010200.0,동인동2가,271000000000.0,대구광역시 중구 국채보상로139길 1 (동인동2가),41908.0,35.86932522,128.60615719999998,20120206,2012,2,6,28048
253,봉산도예전,대구광역시,중구,2711010800.0,봉산동,271000000000.0,대구광역시 중구 봉산문화2길 36,41959.0,35.863797,128.596776,20120406,2012,4,6,11234
254,「제35회 대구약령시 한방문화축제」,대구광역시,중구,2711011900.0,동성로3가,271000000000.0,대구광역시 중구 동성로3가 중앙대로 379-2,41936.0,35.86728621,128.5933489,20120502,2012,5,2,6929
255,동성로축제,대구광역시,중구,2711012300.0,동성로2가,271000000000.0,대구광역시 중구 동성로 28 (동성로2가),41938.0,35.869181,128.595424,20120518,2012,5,18,10770
256,봉산미술제,대구광역시,중구,2711010800.0,봉산동,271000000000.0,대구광역시 중구 봉산문화2길 36,41959.0,35.863797,128.596776,20121012,2012,10,12,9239
257,대구화교중화문화축제,대구광역시,중구,2711011400.0,종로2가,271000000000.0,대구광역시 중구 중앙대로79길 31 (종로2가),41935.0,35.86904432,128.59206,20121013,2012,10,13,15750
258,중구미술협회전,대구광역시,중구,2711010800.0,봉산동,271000000000.0,대구광역시 중구 봉산문화길 77,41958.0,35.863373,128.5965657,20121221,2012,12,21,27359
259,정월대보름달맞이축제,대구광역시,중구,2711010200.0,동인동2가,271000000000.0,대구광역시 중구 국채보상로139길 1 (동인동2가),41908.0,35.86932522,128.60615719999998,20130222,2013,2,22,24058
260,봉산도예전,대구광역시,중구,2711010800.0,봉산동,271000000000.0,대구광역시 중구 봉산문화2길 36,41959.0,35.863797,128.596776,20130409,2013,4,9,25992
261,「제36회 대구약령시 한방문화축제」,대구광역시,중구,2711011900.0,동성로3가,271000000000.0,대구광역시 중구 동성로3가 중앙대로 379-2,41936.0,35.86728621,128.5933489,20130508,2013,5,8,19317
262,동성로축제,대구광역시,중구,2711012300.0,동성로2가,271000000000.0,대구광역시 중구 동성로 28 (동성로2가),41938.0,35.869181,128.595424,20130517,2013,5,17,1966
263,봉산미술제,대구광역시,중구,2711010800.0,봉산동,271000000000.0,대구광역시 중구 봉산문화2길 36,41959.0,35.863797,128.596776,20131015,2013,10,15,2186
264,중구미술협회전,대구광역시,중구,2711010800.0,봉산동,271000000000.0,대구광역시 중구 봉산문화길 77,41958.0,35.863373,128.5965657,20131015,2013,10,15,28819
265,대구화교중화문화축제,대구광역시,중구,2711011400.0,종로2가,271000000000.0,대구광역시 중구 중앙대로79길 31 (종로2가),41935.0,35.86904432,128.59206,20131018,2013,10,18,9674
266,정월대보름달맞이축제,대구광역시,중구,2711010200.0,동인동2가,271000000000.0,대구광역시 중구 국채보상로139길 1 (동인동2가),41908.0,35.86932522,128.60615719999998,20140214,2014,2,14,24505
267,봉산도예전,대구광역시,중구,2711010800.0,봉산동,271000000000.0,대구광역시 중구 봉산문화2길 36,41959.0,35.863797,128.596776,20140411,2014,4,11,3511
268,「제37회 대구약령시 한방문화축제」,대구광역시,중구,2711011900.0,동성로3가,271000000000.0,대구광역시 중구 동성로3가 중앙대로 379-2,41936.0,35.86728621,128.5933489,20141001,2014,10,1,28969
269,동성로축제,대구광역시,중구,2711012300.0,동성로2가,271000000000.0,대구광역시 중구 동성로 28 (동성로2가),41938.0,35.869181,128.595424,20141003,2014,10,3,6676
270,대구화교중화문화축제,대구광역시,중구,2711011400.0,종로2가,271000000000.0,대구광역시 중구 중앙대로79길 31 (종로2가),41935.0,35.86904432,128.59206,20141004,2014,10,4,14589
271,봉산미술제,대구광역시,중구,2711010800.0,봉산동,271000000000.0,대구광역시 중구 봉산문화2길 36,41959.0,35.863797,128.596776,20141014,2014,10,14,12078
272,중구미술협회전,대구광역시,중구,2711010800.0,봉산동,271000000000.0,대구광역시 중구 봉산문화길 77,41958.0,35.863373,128.5965657,20141111,2014,11,11,23868
273,향촌동수제화골목 2014년「빨간구두 이야기」,대구광역시,중구,2711014700.0,대안동,271000000000.0,대구광역시 중구 서성로14길 92,41918.0,35.872928,128.592447,20141115,2014,11,15,10773
274,정월대보름달맞이축제,대구광역시,중구,2711010200.0,동인동2가,271000000000.0,대구광역시 중구 국채보상로139길 1 (동인동2가),41908.0,35.86932522,128.60615719999998,20150305,2015,3,5,2057
275,약령개장 357주년 2015「대구약령시 한방문화축제」,대구광역시,중구,2711011900.0,동성로3가,271000000000.0,대구광역시 중구 동성로3가 중앙대로 379-2,41936.0,35.86728621,128.5933489,20150415,2015,4,15,1292
276,동성로축제,대구광역시,중구,2711012300.0,동성로2가,271000000000.0,대구광역시 중구 동성로 28 (동성로2가),41938.0,35.869181,128.595424,20150501,2015,5,1,20273
277,봉산도예전,대구광역시,중구,2711010800.0,봉산동,271000000000.0,대구광역시 중구 봉산문화2길 36,41959.0,35.863797,128.596776,20150501,2015,5,1,12567
278,향촌동수제화골목 2015년「빨간구두 이야기」,대구광역시,중구,2711014700.0,대안동,271000000000.0,대구광역시 중구 서성로14길 92,41918.0,35.872928,128.592447,20150502,2015,5,2,3056
279,대구화교중화문화축제,대구광역시,중구,2711011400.0,종로2가,271000000000.0,대구광역시 중구 중앙대로79길 31 (종로2가),41935.0,35.86904432,128.59206,20151017,2015,10,17,27826
280,봉산미술제,대구광역시,중구,2711010800.0,봉산동,271000000000.0,대구광역시 중구 봉산문화2길 36,41959.0,35.863797,128.596776,20151020,2015,10,20,29717
281,정월대보름달맞이축제,대구광역시,중구,2711010200.0,동인동2가,271000000000.0,대구광역시 중구 국채보상로139길 1 (동인동2가),41908.0,35.86932522,128.60615719999998,20160222,2016,2,22,4277
282,2016 대구약령시한방문화축제,대구광역시,중구,2711011900.0,동성로3가,271000000000.0,대구광역시 중구 동성로3가 중앙대로 379-2,41936.0,35.86728621,128.5933489,20160504,2016,5,4,12392
283,봉산도예전,대구광역시,중구,2711010800.0,봉산동,271000000000.0,대구광역시 중구 봉산문화2길 36,41959.0,35.863797,128.596776,20160510,2016,5,10,3760
284,동성로축제,대구광역시,중구,2711012300.0,동성로2가,271000000000.0,대구광역시 중구 동성로 28 (동성로2가),41938.0,35.869181,128.595424,20160513,2016,5,13,1048
285,향촌동수제화골목 2016년「빨간구두 이야기」,대구광역시,중구,2711014700.0,대안동,271000000000.0,대구광역시 중구 서성로14길 92,41918.0,35.872928,128.592447,20160514,2016,5,14,21919
286,봉산미술제,대구광역시,중구,2711010800.0,봉산동,271000000000.0,대구광역시 중구 봉산문화2길 36,41959.0,35.863797,128.596776,20161020,2016,10,20,29747
287,대구화교중화문화축제,대구광역시,중구,2711011400.0,종로2가,271000000000.0,대구광역시 중구 중앙대로79길 31 (종로2가),41935.0,35.86904432,128.59206,20161022,2016,10,22,11201
288,봉산조형페스티벌 도예조각전,대구광역시,중구,2711010800.0,봉산동,271000000000.0,대구광역시 중구 봉산문화2길 36,41959.0,35.863797,128.596776,20170425,2017,4,25,13635
289,2017 대구약령시한방문화축제,대구광역시,중구,2711011900.0,동성로3가,271000000000.0,대구광역시 중구 동성로3가 중앙대로 379-2,41936.0,35.86728621,128.5933489,20170503,2017,5,3,11746
290,동성로축제,대구광역시,중구,2711012300.0,동성로2가,271000000000.0,대구광역시 중구 동성로 28 (동성로2가),41938.0,35.869181,128.595424,20170512,2017,5,12,22598
291,대구워터페스티벌,대구광역시,중구,2711015000.0,북성로1가,271000000000.0,대구광역시 중구 북성로1가 북성로 86-1,41918.0,35.87412715,128.59176499999998,20170730,2017,7,30,17581
292,대구 근대路야행,대구광역시,중구,2711010900.0,장관동,271000000000.0,대구광역시 중구 약령길 58-7,41934.0,35.868839,128.589995,20170825,2017,8,25,19707
293,대구화교중화문화축제,대구광역시,중구,2711011400.0,종로2가,271000000000.0,대구광역시 중구 중앙대로79길 31 (종로2가),41935.0,35.86904432,128.59206,20171014,2017,10,14,21645
294,대구스트리트 모터 페스티벌,대구광역시,중구,2711015600.0,남산동,271000000000.0,대구광역시 중구 명덕로35길 14 (남산동),41968.0,35.85747259,128.588345,20171021,2017,10,21,13102
295,봉산미술제,대구광역시,중구,2711010800.0,봉산동,271000000000.0,대구광역시 중구 봉산문화2길 36,41959.0,35.863797,128.596776,20171018,2017,10,18,19942
296,향촌동수제화골목 2017년「빨간구두 이야기」,대구광역시,중구,2711014700.0,대안동,271000000000.0,대구광역시 중구 서성로14길 92,41918.0,35.872928,128.592447,20171028,2017,10,28,24131
297,제1회 북성로 축제,대구광역시,중구,2711014900.0,태평로2가,271000000000.0,대구광역시 중구 태평로28길 20 (태평로2가),41917.0,35.874676,128.591662,20171029,2017,10,29,10814
298,봉산도자기축제,대구광역시,중구,2711010800.0,봉산동,271000000000.0,대구광역시 중구 봉산문화2길 36,41959.0,35.863797,128.596776,20180410,2018,4,10,11274
299,2018 대구약령시한방문화축제,대구광역시,중구,2711011900.0,동성로3가,271000000000.0,대구광역시 중구 동성로3가 중앙대로 379-2,41936.0,35.86728621,128.5933489,20180503,2018,5,3,27105
300,동성로축제,대구광역시,중구,2711012300.0,동성로2가,271000000000.0,대구광역시 중구 동성로 28 (동성로2가),41938.0,35.869181,128.595424,20180511,2018,5,11,20005
301,방천골목오페라축제,대구광역시,중구,2711015700.0,대봉동,271000000000.0,대구광역시 중구 동덕로8길 26-11 (대봉동),41952.0,35.85959468,128.606064,20180614,2018,6,14,19463
302,대구 근대路야행(1회),대구광역시,중구,2711010900.0,장관동,271000000000.0,대구광역시 중구 약령길 58-7,41934.0,35.868839,128.589995,20180824,2018,8,24,3148
303,대구 근대路야행(2회),대구광역시,중구,2711014000.0,동산동,271000000000.0,"대구광역시 중구 달구벌대로 2035 (동산동, 동산아파트)",41931.0,35.86708002,128.5860512,20180907,2018,9,7,3217
304,김광석노래부르기,대구광역시,수성구,2726010400.0,수성동2가,273000000000.0,대구광역시 수성구 수성로72길 43 (수성동2가),42124.0,35.856117,128.61623799999998,20180915,2018,9,15,3855
305,대구화교중화문화축제,대구광역시,중구,2711011400.0,종로2가,271000000000.0,대구광역시 중구 중앙대로79길 31 (종로2가),41935.0,35.86904432,128.59206,20181020,2018,10,20,8828
306,대구스트리트 모터 페스티벌,대구광역시,중구,2711015600.0,남산동,271000000000.0,대구광역시 중구 명덕로35길 14 (남산동),41968.0,35.85747259,128.588345,20181006,2018,10,6,2471
307,봉산미술제,대구광역시,중구,2711010800.0,봉산동,271000000000.0,대구광역시 중구 봉산문화2길 36,41959.0,35.863797,128.596776,20181010,2018,10,10,18029
308,제2회 북성로 축제,대구광역시,중구,2711014900.0,태평로2가,271000000000.0,대구광역시 중구 태평로28길 20 (태평로2가),41917.0,35.874676,128.591662,20181020,2018,10,20,28848
309,향촌동수제화골목 2018년「빨간구두 이야기」,대구광역시,중구,2711014700.0,대안동,271000000000.0,대구광역시 중구 서성로14길 92,41918.0,35.872928,128.592447,20181013,2018,10,13,19277
310,김광석추모콘서트,대구광역시,중구,2711015700.0,대봉동,271000000000.0,대구광역시 중구 달구벌대로 2232-18,41951.0,35.859472,128.6044017,20190106,2019,1,6,18278
311,봉산도자기축제,대구광역시,중구,2711010800.0,봉산동,271000000000.0,대구광역시 중구 봉산문화2길 36,41959.0,35.863797,128.596776,20190419,2019,4,19,27101
312,2019 대구약령시한방문화축제,대구광역시,중구,2711011900.0,동성로3가,271000000000.0,대구광역시 중구 동성로3가 중앙대로 379-2,41936.0,35.86728621,128.5933489,20190502,2019,5,2,7196
313,동성로축제,대구광역시,중구,2711012300.0,동성로2가,271000000000.0,대구광역시 중구 동성로 28 (동성로2가),41938.0,35.869181,128.595424,20190510,2019,5,10,16894
314,대구스트리트 모터 페스티벌,대구광역시,중구,2711015600.0,남산동,271000000000.0,대구광역시 중구 명덕로35길 14 (남산동),41968.0,35.85747259,128.588345,20190518,2019,5,18,22225
315,대구 문화제 야행,대구광역시,중구,2711010900.0,장관동,271000000000.0,대구광역시 중구 약령길 58-7,41934.0,35.868839,128.589995,20190823,2019,8,23,5686
316,김광석노래부르기,대구광역시,수성구,2726010400.0,수성동2가,273000000000.0,대구광역시 수성구 수성로72길 43 (수성동2가),42124.0,35.856117,128.61623799999998,20190921,2019,9,21,19077
317,대구화교중화문화축제,대구광역시,중구,2711011400.0,종로2가,271000000000.0,대구광역시 중구 중앙대로79길 31 (종로2가),41935.0,35.86904432,128.59206,20191019,2019,10,19,28936
318,봉산미술제,대구광역시,중구,2711010800.0,봉산동,271000000000.0,대구광역시 중구 봉산문화2길 36,41959.0,35.863797,128.596776,20191004,2019,10,4,16162
319,제27회 화도진축제,인천광역시,동구,2814010300.0,송현동,281000000000.0,인천광역시 동구 수문통로 4,22550.0,37.476747,126.63223899999998,20160520,2016,5,20,14335
320,제28회 화도진축제,인천광역시,동구,2814010300.0,송현동,281000000000.0,인천광역시 동구 수문통로 4,22550.0,37.476747,126.63223899999998,20170519,2017,5,19,16357
321,제29회 화도진축제,인천광역시,동구,2814010300.0,송현동,281000000000.0,인천광역시 동구 수문통로 4,22550.0,37.476747,126.63223899999998,20180518,2018,5,18,11382
322,제30회 화도진축제,인천광역시,동구,2814010300.0,송현동,281000000000.0,인천광역시 동구 수문통로 4,22550.0,37.476747,126.63223899999998,20190510,2019,5,10,14168
323,2020 대전 서구힐링 아트페스티벌,대전광역시,서구,3017011200.0,둔산동,302000000000.0,대전광역시 서구 둔산서로 100 (둔산동),35238.0,36.35505672,127.3833597,20200522,2020,5,22,18078
324,문경찻사발축제,경상북도,문경시,4728025027.0,문경읍,473000000000.0,경상북도 문경시 문경읍 문경대로 2416,36919.0,36.74144625,128.08380259999998,20190427,2019,4,27,28063
325,강릉망월제,강원도,강릉시,4215012100.0,노암동,422000000000.0,강원도 강릉시 단오장길 1 (노암동),25586.0,37.74820212,128.8950397,20200208,2020,2,8,16421
326,문경약돌한우축제,경상북도,문경시,4728025030.0,문경읍,473000000000.0,경상북도 문경시 문경읍 새재로 932,36919.0,36.76160207,128.0769905,20181103,2018,11,3,25554
327,문경오미자축제,경상북도,문경시,4728035026.0,동로면,473000000000.0,경상북도 문경시 동로면 노은2길 4,36903.0,36.7714734,128.3141145,20190920,2019,9,20,28653
328,문경사과축제,경상북도,문경시,4728025030.0,문경읍,473000000000.0,경상북도 문경시 문경읍 새재로 932,36919.0,36.76160207,128.0769905,20191012,2019,10,12,3569
329,생거진천 문화축제,충청북도,진천군,4375025024.0,진천읍,438000000000.0,충청북도 진천군 진천읍 백사천길 17,27849.0,36.86152209,127.4420392,20201008,2020,10,8,8796
330,가야문화축제,경상남도,김해시,4825010500.0,대성동,483000000000.0,경상남도 김해시 가야의길 126 (대성동),50917.0,35.23606039,128.87308259999998,20190418,2019,4,18,9187
331,김해분청도자기축제,경상남도,김해시,4825033023.0,진례면,483000000000.0,경상남도 김해시 진례면 진례로 275-35,50874.0,35.25149561,128.745857,20191025,2019,10,25,10384
332,부여서동연꽃축제,충청남도,부여군,4476025028.0,부여읍,448000000000.0,충청남도 부여군 부여읍 궁남로 52,33165.0,36.27145891,126.9136908,20200711,2020,7,11,16813
333,백제문화제,충청남도,부여군,4476025028.0,부여읍,448000000000.0,충청남도 부여군 부여읍 정림로 83,33150.0,36.27902473,126.9128811,20200926,2020,9,26,29050
334,홍성역사인물축제,충청남도,홍성군,4480025021.0,홍성읍,448000000000.0,충청남도 홍성군 홍성읍 아문길 27,32228.0,36.6017196,126.6613896,20200503,2020,5,3,8668
335,제3회의성슈퍼푸드마늘축제,경상북도,의성군,4773025021.0,의성읍,477000000000.0,경상북도 의성군 의성읍 군청길 31,37337.0,36.35271101,128.69720690000003,20201001,2020,10,1,22557
336,상화문학제,대구광역시,수성구,2726011100.0,두산동,273000000000.0,대구광역시 수성구 무학로 112 (두산동),42203.0,35.82937671,128.6205781,20200522,2020,5,22,12560
337,뮤직·수제맥주 페스티벌,대구광역시,수성구,2726011100.0,두산동,273000000000.0,대구광역시 수성구 무학로 112 (두산동),42203.0,35.82937671,128.6205781,20200619,2020,6,19,18171
338,수성못 뮤지컬 프린지 페스티벌,대구광역시,수성구,2726011100.0,두산동,273000000000.0,대구광역시 수성구 무학로 112 (두산동),42203.0,35.82937671,128.6205781,20200704,2020,7,4,14448
339,고모령 가요제,대구광역시,수성구,2726012700.0,대흥동,273000000000.0,대구광역시 수성구 유니버시아드로 140 (대흥동),42250.0,35.83165878,128.687326,20200829,2020,8,29,5065
340,수성못 페스티벌,대구광역시,수성구,2726011100.0,두산동,273000000000.0,대구광역시 수성구 무학로 112,42203.0,35.82937671,128.6205781,20200918,2020,9,18,11620
341,수성 건강 축제,대구광역시,수성구,2726012700.0,대흥동,273000000000.0,대구광역시 수성구 유니버시아드로 140 (대흥동),42250.0,35.83165878,128.687326,20200710,2020,7,10,29439
342,수성빛예술제,대구광역시,수성구,2726011100.0,두산동,273000000000.0,대구광역시 수성구 무학로 112 (두산동),42203.0,35.82937671,128.6205781,20201204,2020,12,4,6143
343,화순고인돌문화축제,전라남도,화순군,4679036022.0,도곡면,468000000000.0,전라남도 화순군 도곡면 효자1길 20,58154.0,34.98557648,126.918716,20200919,2020,9,19,27027
344,화순 국화향연,전라남도,화순군,4679025030.0,화순읍,468000000000.0,전라남도 화순군 화순읍 진각로 85,58122.0,35.05831397,126.9851617,20201023,2020,10,23,2541
345,화순적벽 문화축제,전라남도,화순군,4679038027.0,이서면,468000000000.0,전라남도 화순군 이서면 백아로 3114,58103.0,35.11101204,127.0791227,20201030,2020,10,30,13132
346,제28회 연천 구석기 축제,경기도,연천군,4180025321.0,전곡읍,418000000000.0,경기도 연천군 전곡읍 양연로 1510,11027.0,38.01564928,127.0614528,20201009,2020,10,9,17498
347,2019 연천 구석기 겨울축제,경기도,연천군,4180025321.0,전곡읍,418000000000.0,경기도 연천군 전곡읍 양연로 1510,11027.0,38.01564928,127.0614528,20190113,2019,1,13,7228
348,불갑산상사화축제,전라남도,영광군,4687033026.0,불갑면,469000000000.0,전라남도 영광군 불갑면 불갑사로 450,57058.0,35.19967453,126.5500459,20200918,2020,9,18,24497
349,알리사 리턴 투 원더랜드,제주특별자치도,제주시,5011025326.0,애월읍,501000000000.0,제주특별자치도 제주시 애월읍 애월해안로 516-7,63047.0,33.47767128,126.3600019,20191103,2019,11,3,26201
350,알리사 리턴 투 원더랜드,제주특별자치도,제주시,5011025326.0,애월읍,501000000000.0,제주특별자치도 제주시 애월읍 애월해안로 516-7,63047.0,33.47767128,126.3600019,20191103,2019,11,3,6421
351,제천국제음악영화제,충청북도,제천시,4315011300.0,청전동,432000000000.0,충청북도 제천시 의림대로 242 (청전동),27152.0,37.148685,128.216854,20200813,2020,8,13,4137
352,겨울왕국 제천페스티벌,충청북도,제천시,4315011300.0,청전동,432000000000.0,충청북도 제천시 의림대로 242 (청전동),27152.0,37.148685,128.216854,20201224,2020,12,24,20905
353,휴애리 수국축제,제주특별자치도,서귀포시,5013025329.0,남원읍,501000000000.0,제주특별자치도 서귀포시 남원읍 신례동로 256,63608.0,33.30853467,126.6343826,20200320,2020,3,20,29941
354,제주허브동산 수국축제,제주특별자치도,서귀포시,5013032021.0,표선면,501000000000.0,제주특별자치도 서귀포시 표선면 돈오름로 170,63628.0,33.32912371,126.8147248,20200610,2020,6,10,7075
355,마노르블랑 유럽수국축제,제주특별자치도,서귀포시,5013031026.0,안덕면,501000000000.0,제주특별자치도 서귀포시 안덕면 일주서로2100번길 46,63527.0,33.25482247,126.2949865,20200525,2020,5,25,10383
356,2020 제주식품대전,제주특별자치도,서귀포시,5013011200.0,중문동,501000000000.0,제주특별자치도 서귀포시 중문관광로 224 (중문동),63547.0,33.24129026,126.4244423,20200716,2020,7,16,24218
357,땅끝매화축제,전라남도,해남군,4682041024.0,산이면,468000000000.0,전라남도 해남군 산이면 예덕길 125-89,59012.0,34.62452401,126.463392,20200307,2020,3,7,23745
358,달마고도 걷기축제,전라남도,해남군,4682034034.0,송지면,468000000000.0,전라남도 해남군 송지면 미황사길 164,59067.0,34.38223237,126.5779589,20200328,2020,3,28,24831
359,흑석산 철쭉제,전라남도,해남군,4682038032.0,계곡면,468000000000.0,전라남도 해남군 계곡면 산골길 306,59017.0,34.6709354,126.6169962,20200425,2020,4,25,19759
360,연호보리축제,전라남도,해남군,4682040023.0,황산면,468000000000.0,전라남도 해남군 황산면 원금길 162-51,59008.0,34.59870438,126.4913358,20200530,2020,5,30,21102
361,땅끝수국축제,전라남도,해남군,4682033029.0,현산면,468000000000.0,전라남도 해남군 현산면 봉동길 232-118,59060.0,34.45321139,126.5955014,20200610,2020,6,10,25246
362,송호해변여름축제,전라남도,해남군,4682034030.0,송지면,468000000000.0,전라남도 해남군 송지면 땅끝해안로 1813,59065.0,34.31571344,126.51895,20200718,2020,7,18,22574
363,오시아노 樂 페스티벌,전라남도,해남군,4682043032.0,화원면,468000000000.0,전라남도 해남군 화원면 시아로 552,59002.0,34.670829,126.260601,20200814,2020,8,14,14569
364,북평용줄다리기 축제,전라남도,해남군,4682035021.0,북평면,468000000000.0,전라남도 해남군 북평면 한밭등길 5-1,59055.0,34.40370907,126.6280888,20201023,2020,10,23,25470
365,땅끝 해넘이·해맞이 축제,전라남도,해남군,4682034030.0,송지면,468000000000.0,전라남도 해남군 송지면 땅끝마을길 70-14,59065.0,34.2982093,126.5293983,20201231,2020,12,31,18979
366,군산시간여행축제,전라북도,군산시,4513011800.0,중앙로1가,451000000000.0,전라북도 군산시 중앙로 178 (중앙로1가),54021.0,35.98772627,126.711725,20201009,2020,10,9,23372
367,황태축제,강원도,인제군,4281032024.0,북면,428000000000.0,강원도 인제군 북면 황태길 372,24605.0,38.2208221,128.3707557,20190606,2019,6,6,24186
368,진동계곡산나물축제,강원도,인제군,4281033025.0,기린면,428000000000.0,강원도 인제군 기린면 조침령로 1061,24653.0,37.96392812,128.4053588,20190518,2019,5,18,7790
369,인제빙어축제,강원도,인제군,4281031024.0,남면,428000000000.0,강원도 인제군 남면 모루박길 17-46,24646.0,37.98808996,128.0955517,20200118,2020,1,18,29876
370,평창송어축제,강원도,평창군,4276036021.0,진부면,428000000000.0,강원도 평창군 진부면 경강로 3562,25332.0,37.6332195,128.5570386,20191228,2019,12,28,4126
371,대관령눈꽃축제,강원도,평창군,4276038024.0,대관령면,428000000000.0,강원도 평창군 대관령면 올림픽로 109,25347.0,37.670709,128.704625,20200117,2020,1,17,25443
372,오대산문화축전,강원도,평창군,4276036027.0,진부면,428000000000.0,강원도 평창군 진부면 오대산로 413-28,25318.0,37.73403976,128.5875972,20201008,2020,10,8,25091
373,조선통신사 축제,부산광역시,중구,2611013100.0,창선동1가,261000000000.0,부산광역시 중구 광복중앙로 3 (창선동1가),48948.0,35.09953937,129.0311369,20201001,2020,10,1,29156
374,광복로연등문화제,부산광역시,중구,2611013400.0,광복동2가,261000000000.0,부산광역시 중구 광복로77번길 5 (광복동2가),48952.0,35.09905809,129.0333969,20200414,2020,4,14,22075
375,보수동책방골목문화축제,부산광역시,중구,2611012000.0,보수동1가,261000000000.0,부산광역시 중구 흑교로46번길 11 (보수동1가),48967.0,35.10362715,129.0261809,20201001,2020,10,1,20825
376,부산국제영화제 전야제,부산광역시,중구,2611014000.0,남포동5가,261000000000.0,부산광역시 중구 비프광장로 36 (남포동5가),48953.0,35.09862035,129.0287588,20201006,2020,10,6,7028
377,부산자갈치축제,부산광역시,중구,2611013900.0,남포동4가,261000000000.0,부산광역시 중구 자갈치해안로 52 (남포동4가),48983.0,35.096639399999994,129.0305933,20201008,2020,10,8,28312
378,부산크리스마스트리문화축제,부산광역시,중구,2611013400.0,광복동2가,261000000000.0,부산광역시 중구 광복중앙로 2 (광복동2가),48952.0,35.09954320000001,129.0314651,20201128,2020,11,28,28580
379,태백산눈축제,강원도,태백시,4219010100.0,황지동,422000000000.0,강원도 태백시 태붐로 21 (황지동),26023.0,37.16421694,128.9865547,20200110,2020,1,10,26994
380,한강낙동강발원지축제,강원도,태백시,4219010100.0,황지동,422000000000.0,강원도 태백시 태붐로 21 (황지동),26023.0,37.16421694,128.9865547,20190720,2019,7,20,6570
381,강릉단오제,강원도,강릉시,4215012100.0,노암동,422000000000.0,강원도 강릉시 단오장길 12,25586.0,37.74820212,128.8950714,20200621,2020,6,21,6571
382,난설헌허초희 문화제,강원도,강릉시,4215011200.0,초당동,422000000000.0,강원도 강릉시 난설헌로193번길 1-16 (초당동),25466.0,37.79187317,128.9096453,20200901,2020,9,1,13065
383,허균문화제,강원도,강릉시,4215011200.0,초당동,422000000000.0,강원도 강릉시 난설헌로193번길 1-16 (초당동),25466.0,37.79187317,128.9096453,20201010,2020,10,10,5332
384,강릉커피축제,강원도,강릉시,4215011100.0,포남동,422000000000.0,강원도 강릉시 수리골길 102 (포남동),25472.0,37.77929864,128.8970866,20201008,2020,10,8,5828
385,2021 제22회 아차산 해맞이 축제,경기도,구리시,4131010600.0,아천동,413000000000.0,경기도 구리시 아차산로 67 (아천동),11957.0,37.56456641,127.1148714,20210101,2021,1,1,20783
386,이천쌀문화축제,경기도,이천시,4150010200.0,관고동,415000000000.0,경기도 이천시 경충대로2697번길 306 (관고동),17379.0,37.27793778,127.4269268,20201022,2020,10,22,11526
387,이천도자기축제,경기도,이천시,4150031029.0,신둔면,415000000000.0,경기도 이천시 신둔면 도자예술로5번길 109,17306.0,37.29309775,127.385686,20200425,2020,4,25,21191
388,햇사레장호원복숭아축제,경기도,이천시,4150025021.0,장호원읍,415000000000.0,경기도 이천시 장호원읍 서동대로8759번길 117,17421.0,37.11809864,127.6121816,20190920,2019,9,20,8672
389,공주항공축제,충청남도,공주시,4415036024.0,의당면,442000000000.0,충청남도 공주시 의당면 신촌길 149-8,32519.0,36.51052026,127.1258208,20190504,2019,5,4,3501
390,이천인삼축제,경기도,이천시,4150010200.0,관고동,415000000000.0,경기도 이천시 경충대로2697번길 306 (관고동),17379.0,37.27793778,127.4269268,20201030,2020,10,30,6553
391,설봉산별빛축제,경기도,이천시,4150010200.0,관고동,415000000000.0,경기도 이천시 경충대로2697번길 304 (관고동),17379.0,37.27792699,127.425921,20190713,2019,7,13,6129
392,체험문화축제,경기도,이천시,4150010200.0,관고동,415000000000.0,경기도 이천시 경충대로2697번길 306 (관고동),17379.0,37.27793778,127.4269268,20190525,2019,5,25,25936
393,이천백사산수유꽃축제,경기도,이천시,4150032023.0,백사면,415000000000.0,경기도 이천시 백사면 원적로775번길 17,17309.0,37.34077593,127.4622972,20190329,2019,3,29,12256
394,백제 어울마당,충청남도,공주시,4415010800.0,금성동,442000000000.0,충청남도 공주시 웅진로 280,32555.0,36.46521533,127.1236356,20170415,2017,4,15,13727
395,웅진성수문병 근무교대식,충청남도,공주시,4415010800.0,금성동,442000000000.0,충청남도 공주시 웅진로 280 (금성동),32555.0,36.46521533,127.1236802,20170415,2017,4,15,12002
396,공주 석장리 구석기축제,충청남도,공주시,4415012500.0,석장리동,442000000000.0,충청남도 공주시 금벽로 990 (석장리동),32591.0,36.44795221,127.1875895,20170503,2017,5,3,21848
397,계룡산산신제,충청남도,공주시,4415033029.0,계룡면,442000000000.0,충청남도 공주시 계룡면 보목고개로 393,32619.0,36.333638,127.177107,20170412,2017,4,12,12669
398,마곡사 신록축제,충청남도,공주시,4415039029.0,사곡면,442000000000.0,충청남도 공주시 사곡면 마곡사로 966,32520.0,36.55740589,127.011603,20170422,2017,4,22,26258
399,제63회 백제문화제,충청남도,공주시,4415012000.0,신관동,442000000000.0,충청남도 공주시 금벽로 368 (신관동),32573.0,36.47021463,127.1274371,20170928,2017,9,28,27382
400,2017 겨울공주군밤축제,충청남도,공주시,4415011000.0,금학동,442000000000.0,충청남도 공주시 수원지공원길 74,32602.0,36.43336915,127.12403799999998,20171222,2017,12,22,8072
401,2018 백제어울마당,충청남도,공주시,4415010700.0,웅진동,442000000000.0,충청남도 공주시 왕릉로 37 (웅진동),32535.0,36.46060505,127.11269070000002,20180414,2018,4,14,22813
402,2018 웅진성수문병 근무교대식,충청남도,공주시,4415010800.0,금성동,442000000000.0,충청남도 공주시 웅진로 280 (금성동),32555.0,36.46521533,127.1236802,20180421,2018,4,21,10418
403,2018 공주 석장리 세계구석기축제,충청남도,공주시,4415012500.0,석장리동,442000000000.0,충청남도 공주시 금벽로 990 (석장리동),32591.0,36.44795221,127.1875895,20180504,2018,5,4,22288
404,2018 계룡산산신제,충청남도,공주시,4415033029.0,계룡면,442000000000.0,충청남도 공주시 계룡면 보목고개로 393,32619.0,36.333638,127.177107,20180428,2018,4,28,2295
405,제15회 마곡사신록축제,충청남도,공주시,4415039029.0,사곡면,442000000000.0,충청남도 공주시 사곡면 마곡사로 966,32520.0,36.55740589,127.011603,20180512,2018,5,12,4902
406,2018 계룡산벚꽃축제,충청남도,공주시,4415034033.0,반포면,442000000000.0,충청남도 공주시 반포면 동학사1로 167-31,32626.0,36.36030634,127.2509274,20180406,2018,4,6,12539
407,2018 마곡사토요무대,충청남도,공주시,4415039029.0,사곡면,442000000000.0,충청남도 공주시 사곡면 마곡사로 854,32520.0,36.55728753,127.0183843,20180707,2018,7,7,22520
408,제64회 백제문화제,충청남도,공주시,4415012000.0,신관동,442000000000.0,충청남도 공주시 금벽로 368 (신관동),32573.0,36.47021463,127.1274371,20180914,2018,9,14,12440
409,2019겨울공주군밤축제,충청남도,공주시,4415011000.0,금학동,442000000000.0,충청남도 공주시 수원지공원길 74,32602.0,36.43336915,127.12403799999998,20190118,2019,1,18,1616
410,2019 백제어울마당,충청남도,공주시,4415010700.0,웅진동,442000000000.0,충청남도 공주시 왕릉로 37 (웅진동),32535.0,36.46060505,127.11269070000002,20190504,2019,5,4,1312
411,2019 웅진성수문병 근무교대식,충청남도,공주시,4415010800.0,금성동,442000000000.0,충청남도 공주시 웅진로 280 (금성동),32555.0,36.46521533,127.1236802,20190504,2019,5,4,24516
412,2019 공주 석장리 구석기축제,충청남도,공주시,4415012500.0,석장리동,442000000000.0,충청남도 공주시 금벽로 990 (석장리동),32591.0,36.44795221,127.1875895,20190503,2019,5,3,15019
413,2019 계룡산산신제,충청남도,공주시,4415033029.0,계룡면,442000000000.0,충청남도 공주시 계룡면 보목고개로 393,32619.0,36.333638,127.177107,20190420,2019,4,20,18725
414,제16회 마곡사신록축제,충청남도,공주시,4415039029.0,사곡면,442000000000.0,충청남도 공주시 사곡면 마곡사로 966,32520.0,36.55740589,127.011603,20190427,2019,4,27,13394
415,2019 계룡산벚꽃축제,충청남도,공주시,4415034033.0,반포면,442000000000.0,충청남도 공주시 반포면 동학사1로 167-31,32626.0,36.36030634,127.2509274,20190405,2019,4,5,23227
416,갑사황매화 축제,충청남도,공주시,4415033027.0,계룡면,442000000000.0,충청남도 공주시 계룡면 갑사로 567-3,32615.0,36.36607692,127.1864443,20190426,2019,4,26,12698
417,도봉산 산사축제,서울특별시,도봉구,1132010800.0,도봉동,113000000000.0,서울특별시 도봉구 도봉산길 87,1300.0,37.68646939999999,127.033968,20151002,2015,10,2,20876
418,공주 금강여름축제,충청남도,공주시,4415039029.0,사곡면,442000000000.0,충청남도 공주시 사곡면 마곡사로 854,32520.0,36.55728753,127.0183843,20190726,2019,7,26,15422
419,제65회 백제문화제,충청남도,공주시,4415012000.0,신관동,442000000000.0,충청남도 공주시 금벽로 368 (신관동),32573.0,36.47021463,127.1274371,20190928,2019,9,28,19245
420,안동민속축제,경상북도,안동시,4717011200.0,동부동,472000000000.0,경상북도 안동시 서동문로 203 (동부동),36693.0,36.5662343,128.7342615,20200925,2020,9,25,2679
421,안동국제탈춤축제,경상북도,안동시,4717011300.0,운흥동,472000000000.0,경상북도 안동시 육사로 239 (운흥동),36709.0,36.5606948,128.73225559999997,20200925,2020,9,25,2992
422,제2회 인천 송도크루즈 불꽃축제,인천광역시,연수구,2818510600.0,송도동,282000000000.0,인천광역시 연수구 국제항만대로 438 (송도동),22016.0,37.425126,126.5916752,20200822,2020,8,22,5267
423,제11회 연수 능허대 문화축제,인천광역시,연수구,2818510300.0,연수동,282000000000.0,인천광역시 연수구 새말로 120 (연수동),21928.0,37.41807754,126.6824114,20201010,2020,10,10,6127
424,어린이 축제,인천광역시,중구,2811010500.0,해안동1가,281000000000.0,인천광역시 중구 제물량로218번길 3 (해안동1가),22314.0,37.4727812,126.6205961,20201010,2020,10,10,15627
425,무의도 춤축제,인천광역시,중구,2811015200.0,무의동,281000000000.0,인천광역시 중구 하나개로 151-8 (무의동),22387.0,37.38415996,126.41081909999998,20200801,2020,8,1,28027
426,인천상륙작전 문화공연,인천광역시,중구,2811013800.0,북성동1가,281000000000.0,인천광역시 중구 월미로233번길 7 (북성동1가),22302.0,37.47463888,126.6003144,20200912,2020,9,12,27954
427,연안부두 축제,인천광역시,중구,2811011800.0,항동7가,281000000000.0,인천광역시 중구 연안부두로33번길 37 (항동7가),22348.0,37.45413694,126.60716399999998,20201017,2020,10,17,19888
428,개항장뮤직페스티벌,인천광역시,중구,2811010900.0,관동1가,281000000000.0,인천광역시 중구 신포로27번길 80 (관동1가),22315.0,37.47408104,126.62134009999998,20201031,2020,10,31,8394
429,자유공원 벚꽃축제,인천광역시,중구,2811011900.0,송학동1가,281000000000.0,인천광역시 중구 자유공원남로 25 (송학동1가),22315.0,37.47457903,126.6226671,20200912,2020,9,12,12759
430,신포크리스마스트리 축제,인천광역시,중구,2811011100.0,관동3가,281000000000.0,인천광역시 중구 신포로 35 (관동3가),22315.0,37.47200022,126.62546299999998,20201128,2020,11,28,25352
431,불꽃축제,인천광역시,중구,2811014500.0,중산동,281000000000.0,인천광역시 중구 하늘달빛로2번길 6 (중산동),22409.0,37.48175399,126.56581090000002,20201024,2020,10,24,19329
432,인천개항장 문화재야행,인천광역시,중구,2811010900.0,관동1가,281000000000.0,인천광역시 중구 신포로27번길 80 (관동1가),22315.0,37.47408104,126.62134009999998,20200502,2020,5,2,22756
433,인천개항장 문화재야행,인천광역시,중구,2811010900.0,관동1가,281000000000.0,인천광역시 중구 신포로27번길 80 (관동1가),22315.0,37.47408104,126.62134009999998,20200912,2020,9,12,9402
434,세계거리춤축제,서울특별시,동대문구,1123010600.0,장안동,112000000000.0,서울특별시 동대문구 천호대로 405 (장안동),2633.0,37.56201359,127.0641794,20200919,2020,9,19,18234
435,청룡문화제,서울특별시,동대문구,1123010200.0,용두동,112000000000.0,서울특별시 동대문구 청계천로 563 (용두동),2590.0,37.57325834,127.0385968,20201024,2020,10,24,8539
436,남사예담촌 전통문화제,경상남도,산청군,4886037028.0,단성면,489000000000.0,경상남도 산청군 단성면 지리산대로2897번길 10,52252.0,35.27438505,127.93630790000002,20200920,2020,9,20,1179
437,제44회 남명선비문화축제,경상남도,산청군,4886036022.0,시천면,489000000000.0,경상남도 산청군 시천면 남명로240번길 33,52234.0,35.27631899,127.8460504,20201016,2020,10,16,2663
438,제14회 기산국악제전,경상남도,산청군,4886037029.0,단성면,489000000000.0,경상남도 산청군 단성면 상동길 69,52252.0,35.27597812,127.93403130000002,20200918,2020,9,18,21909
439,제15회 영등포 여의도 봄꽃축제,서울특별시,영등포구,1156011000.0,여의도동,116000000000.0,서울특별시 영등포구 의사당대로 1 (여의도동),7233.0,37.5329136,126.91640359999998,20190405,2019,4,5,3193
440,합천벚꽃마라톤대회,경상남도,합천군,4889045023.0,대병면,489000000000.0,경상남도 합천군 대병면 합천호수로 197,50216.0,35.531585,128.02951969999998,20200329,2020,3,29,6711
441,황매산 철쭉제,경상남도,합천군,4889044024.0,가회면,489000000000.0,경상남도 합천군 가회면 황매산공원길 4,50226.0,35.48184913,128.0037495,20200427,2020,4,27,18250
442,합천바캉스축제,경상남도,합천군,4889041021.0,대양면,489000000000.0,경상남도 합천군 대양면 동부로 39-13,50239.0,35.55690191,128.16680520000003,20200730,2020,7,30,24748
443,합천기록문화축제,경상남도,합천군,4889033032.0,가야면,489000000000.0,경상남도 합천군 가야면 가야산로 1160,50201.0,35.76749785,128.1365362,20201019,2020,10,19,12774
444,서산국화축제,충청남도,서산시,4421040021.0,고북면,442000000000.0,충청남도 서산시 고북면 복남골길 31-1,32027.0,36.66936247,126.536256,20201030,2020,10,30,14805
445,부천국제판타스틱영화제,경기도,부천시,4119010800.0,중동,412000000000.0,경기도 부천시 길주로 210 (중동),14547.0,37.50358247,126.76533700000002,20200709,2020,7,9,20358
446,부천전국비보이대회,경기도,부천시,4119010900.0,상동,412000000000.0,경기도 부천시 길주로121번길 18-19 (상동),14542.0,37.50660402,126.7571075,20200621,2020,6,21,29819
447,부천국제만화축제,경기도,부천시,4119010900.0,상동,412000000000.0,경기도 부천시 길주로 1 (상동),14505.0,37.50856874,126.7437144,20200814,2020,8,14,25379
448,부천세계비보이대회,경기도,부천시,4119010900.0,상동,412000000000.0,경기도 부천시 길주로121번길 18-19,14542.0,37.50660402,126.7571075,20200925,2020,9,25,16185
449,부천전국대학가요제,경기도,부천시,4119011000.0,소사본동,412000000000.0,경기도 부천시 호현로489번길 52 (소사본동),14754.0,37.47831788,126.7900308,20200919,2020,9,19,4431
450,부천국제애니메이션페스티벌,경기도,부천시,4119010900.0,상동,412000000000.0,경기도 부천시 길주로 1 (상동),14505.0,37.50856874,126.7437144,20201023,2020,10,23,4615
451,제15회 파주개성인삼축제,경기도,파주시,4148025026.0,문산읍,415000000000.0,경기도 파주시 문산읍 임진각로 177,10808.0,37.8893177,126.74006570000002,20201017,2020,10,17,24801
452,제24회 파주장단콩축제,경기도,파주시,4148025026.0,문산읍,415000000000.0,경기도 파주시 문산읍 임진각로 177,10808.0,37.8893177,126.74006570000002,20201127,2020,11,27,21837
453,영천한약축제,경상북도,영천시,4723011000.0,화룡동,472000000000.0,경상북도 영천시 천문로 485,38839.0,35.977523299999994,128.92181609999997,20200925,2020,9,25,3390
454,영천문화예술제,경상북도,영천시,4723010500.0,문외동,472000000000.0,경상북도 영천시 중앙동2길 89-15 (문외동),38850.0,35.973071399999995,128.9328273,20201016,2020,10,16,5919
455,영천보현산별빛축제,경상북도,영천시,4723034029.0,화북면,472000000000.0,경상북도 영천시 화북면 별빛로 681-32,38812.0,36.1402561,128.9967122,20201009,2020,10,9,28008
456,"의정부 건강축제 「건강, 사계 四季」",경기도,의정부시,4115010100.0,의정부동,412000000000.0,경기도 의정부시 범골로 131 (의정부동),11649.0,37.73615924,127.0395615,20200919,2020,9,19,20260
457,2020 제17회 청소년 어울림마당 행복누리축제,경기도,의정부시,4115010100.0,의정부동,412000000000.0,경기도 의정부시 의정로 27 (의정부동),11622.0,37.73517715,127.033897,20200411,2020,4,11,5862
458,제98회 어린이날 행사 어린이 한마당 큰잔치,경기도,의정부시,4115010100.0,의정부동,412000000000.0,경기도 의정부시 의정로 27 (의정부동),11622.0,37.73517715,127.033897,20200505,2020,5,5,17445
459,2020 제3회 의정부시청소년진로페스티벌,경기도,의정부시,4115010100.0,의정부동,412000000000.0,경기도 의정부시 의정로 27 (의정부동),11622.0,37.735161,127.033856,20200522,2020,5,22,2157
460,2020 전국 청소년 댄스페스티벌 ''꿈을 향한 무(舞)승부'',경기도,의정부시,4115010100.0,의정부동,412000000000.0,경기도 의정부시 의정로 27 (의정부동),11622.0,37.73517715,127.033897,20200530,2020,5,30,24003
461,제3회 의정부시 청소년 party,경기도,의정부시,4115010100.0,의정부동,412000000000.0,경기도 의정부시 의정로 27 (의정부동),11622.0,37.73517715,127.033897,20200523,2020,5,23,8091
462,제3회 의정부시장배 전국 청소년 드론경연대회,경기도,의정부시,4115011100.0,녹양동,412000000000.0,경기도 의정부시 체육로 90 (녹양동),11606.0,37.76001299,127.02796709999998,20200725,2020,7,25,3775
463,청소년 공감 콘서트,경기도,의정부시,4115010300.0,장암동,412000000000.0,경기도 의정부시 장곡로 22 (장암동),11723.0,37.70699473,127.053346,20201023,2020,10,23,1370
464,제2회 의정부시 청소년 풋살대회,경기도,의정부시,4115010100.0,의정부동,412000000000.0,경기도 의정부시 호국로1162번길 73 (의정부동),11622.0,37.74005802,127.03274840000002,20201024,2020,10,24,14531
465,2020 푸른별 콘서트,경기도,의정부시,4115010100.0,의정부동,412000000000.0,경기도 의정부시 의정로 1 (의정부동),11622.0,37.73338595,127.034135,20201202,2020,12,2,4054
466,의정부시평생학습박람회,경기도,의정부시,4115011000.0,가능동,412000000000.0,경기도 의정부시 의정로 165 (가능동),11675.0,37.74777259,127.0342439,20200523,2020,5,23,2329
467,의정부 미용페스티벌,경기도,의정부시,4115010100.0,의정부동,412000000000.0,경기도 의정부시 의정로 1 (의정부동),11622.0,37.733386,127.034128,20200903,2020,9,3,7016
468,의정부 부대찌개축제,경기도,의정부시,4115010100.0,의정부동,412000000000.0,경기도 의정부시 호국로 1309 (의정부동),11689.0,37.743904,127.049659,20201017,2020,10,17,13732
469,의정부가족문화대축제,경기도,의정부시,4115010100.0,의정부동,412000000000.0,경기도 의정부시 시민로 12 (의정부동),11624.0,37.737579,127.036375,20200502,2020,5,2,27618
470,2020 하하페스티벌,경기도,의정부시,4115010100.0,의정부동,412000000000.0,경기도 의정부시 시민로 12 (의정부동),11624.0,37.737579,127.036375,20200920,2020,9,20,28660
471,천상병예술제,경기도,의정부시,4115010100.0,의정부동,412000000000.0,경기도 의정부시 의정로 1 (의정부동),11622.0,37.733386,127.034128,20200425,2020,4,25,13528
472,의정부음악극축제,경기도,의정부시,4115010100.0,의정부동,412000000000.0,경기도 의정부시 의정로 1 (의정부동),11622.0,37.733386,127.034128,20200508,2020,5,8,15849
473,블랙뮤직페스티벌,경기도,의정부시,4115010100.0,의정부동,412000000000.0,경기도 의정부시 의정로 1 (의정부동),11622.0,37.733386,127.034128,20200807,2020,8,7,12924
474,의정부 국제가야금축제,경기도,의정부시,4115010100.0,의정부동,412000000000.0,경기도 의정부시 의정로 1 (의정부동),11622.0,37.733386,127.034128,20200925,2020,9,25,29886
475,예산장터삼국축제,충청남도,예산군,4481025023.0,예산읍,448000000000.0,충청남도 예산군 예산읍 천변로 160,32438.0,36.67611933,126.8479256,20201016,2020,10,16,5724
476,해운대 북극곰축제,부산광역시,해운대구,2635010500.0,우동,264000000000.0,부산광역시 해운대구 해운대해변로 264 (우동),48100.0,35.15910673,129.1602827,20200104,2020,1,4,5915
477,원도심활성화 축제,부산광역시,중구,2611011600.0,대청동1가,261000000000.0,부산광역시 중구 대청동1가 중구로 120,48926.0,35.10619853,129.03235049999998,20200912,2020,9,12,19421
478,부산불꽃축제,부산광역시,수영구,2650010400.0,광안동,265000000000.0,부산광역시 수영구 광안로 64 (광안동),48303.0,35.1543923,129.11884479999998,20201107,2020,11,7,16979
479,부산크리스마스트리축제,부산광역시,중구,2611012400.0,부평동2가,261000000000.0,부산광역시 중구 부평동2가 광복로6번길 3,48980.0,35.09929696,129.0258061,20201101,2020,11,1,13669
480,부산시민의종 타종식,부산광역시,중구,2611013400.0,광복동2가,261000000000.0,부산광역시 중구 용두산길 37-55 (광복동2가),48950.0,35.1009305,129.0324434,20201231,2020,12,31,5580
481,부산항축제,부산광역시,동구,2617010100.0,초량동,262000000000.0,부산광역시 동구 충장대로 206 (초량동),48751.0,35.11774625,129.0491459,20201017,2020,10,17,18620
482,조선통신사 축제,부산광역시,중구,2611013400.0,광복동2가,261000000000.0,부산광역시 중구 용두산길 37-55 (광복동2가),48950.0,35.1009305,129.0324434,20201024,2020,10,24,29022
483,제15회 광릉숲축제,경기도,남양주시,4136025325.0,진접읍,414000000000.0,경기도 남양주시 진접읍 봉선사길 32,12001.0,37.7463984,127.1836293,20200901,2020,9,1,15471
484,제34회 정약용문화제,경기도,남양주시,4136036021.0,조안면,414000000000.0,경기도 남양주시 조안면 다산로747번길 11,12283.0,37.51627447,127.299035,20201001,2020,10,1,12353
485,제17회 추억의 충장축제,광주광역시,동구,2911011800.0,서석동,291000000000.0,광주광역시 동구 서남로 1 (서석동),61466.0,35.1461414,126.92309509999998,20201014,2020,10,14,4804
486,진주남강유등축제,경상남도,진주시,4817010300.0,강남동,482000000000.0,경상남도 진주시 강남로291번길 10 (강남동),52707.0,35.18725548,128.0855326,20201001,2020,10,1,5701
487,개천예술제,경상남도,진주시,4817010800.0,인사동,482000000000.0,경상남도 진주시 서장대로393번길 11-4,52689.0,35.18727536,128.09174240000002,20201003,2020,10,3,13926
488,롤링나이트 2019,서울특별시,강남구,1168010500.0,삼성동,117000000000.0,서울특별시 강남구 영동대로 513 (삼성동),6164.0,37.51182328,127.0591597,20190605,2019,6,5,16009
489,코리아드라마페스티벌,경상남도,진주시,4817010400.0,칠암동,482000000000.0,경상남도 진주시 강남로 215,52722.0,35.18734031,128.0711471,20201001,2020,10,1,8280
490,진주논개제,경상남도,진주시,4817010700.0,남성동,482000000000.0,경상남도 진주시 진양호로 476 (남성동),52689.0,35.19079391,128.0776702,20200502,2020,5,2,24676
491,우륵문화제,충청북도,충주시,4313011800.0,연수동,431000000000.0,충청북도 충주시 예성로 266 (연수동),27371.0,36.98169208,127.9365803,20190926,2019,9,26,5101
492,광양매화축제,전라남도,광양시,4623010600.0,중동,462000000000.0,전라남도 광양시 시청로 33 (중동),57785.0,34.94063056,127.6959675,20200101,2020,1,1,20064
493,백운산국사봉철쭉축제,전라남도,광양시,4623033024.0,옥곡면,462000000000.0,전라남도 광양시 옥곡면 옥진로 665-1,57726.0,34.98936299,127.7001825,20200101,2020,1,1,21429
494,광양전어축제,전라남도,광양시,4623035021.0,진월면,462000000000.0,전라남도 광양시 진월면 망덕길 265,57712.0,34.97164706,127.7587907,20200101,2020,1,1,17802
495,광양숯불구이축제,전라남도,광양시,4623025023.0,광양읍,462000000000.0,전라남도 광양시 광양읍 남등길 6,57739.0,34.9733415,127.5810489,20200101,2020,1,1,2976
496,용전들노래 가을걷이 한마당,광주광역시,북구,2917013600.0,용전동,292000000000.0,광주광역시 북구 용전마을길 42,61042.0,35.23893658,126.8973084,20191026,2019,10,26,11052
497,제21회 용전들노래 정기공연,광주광역시,북구,2917013600.0,용전동,292000000000.0,광주광역시 북구 용전마을길 42,61042.0,35.23893658,126.8973084,20190727,2019,7,27,7302
498,옥정호 꽃걸음 빛바람 축제,전라북도,임실군,4575032027.0,운암면,458000000000.0,전라북도 임실군 운암면 입석1길 59,55904.0,35.63203851,127.1526815,20190427,2019,4,27,18138
499,의견문화제,전라북도,임실군,4575035521.0,오수면,458000000000.0,전라북도 임실군 오수면 충효로 2096-16,55953.0,35.54520247,127.3326779,20190504,2019,5,4,3002
500,섬진강다슬기축제,전라북도,임실군,4575040028.0,덕치면,458000000000.0,전라북도 임실군 덕치면 강운로 11,55941.0,35.52099481,127.1471835,20190720,2019,7,20,5749
501,필봉마을굿축제,전라북도,임실군,4575039028.0,강진면,458000000000.0,전라북도 임실군 강진면 강운로 272,55937.0,35.53639442,127.1544452,20190815,2019,8,15,22890
502,사선문화제,전라북도,임실군,4575038026.0,관촌면,458000000000.0,전라북도 임실군 관촌면 사선2길 68-7,55909.0,35.6723571,127.27462450000002,20190920,2019,9,20,7631
503,임실N치즈축제,전라북도,임실군,4575034021.0,성수면,458000000000.0,전라북도 임실군 성수면 도인2길 50,55918.0,35.63310329,127.30125990000002,20191003,2019,10,3,9947
504,산타축제,전라북도,임실군,4575034021.0,성수면,458000000000.0,전라북도 임실군 성수면 도인2길 50,55918.0,35.63310329,127.30125990000002,20191221,2019,12,21,1522
505,동래읍성역사축제,부산광역시,동래구,2626010700.0,명륜동,263000000000.0,부산광역시 동래구 문화로 80 (명륜동),47746.0,35.21195234,129.090544,20201009,2020,10,9,1923
506,백양단풍축제,전라남도,장성군,4688040025.0,북하면,469000000000.0,전라남도 장성군 북하면 백양로 1239,57205.0,35.43972586,126.8828597,20201101,2020,11,1,8683
507,빈센트의 봄,전라남도,장성군,4688025024.0,장성읍,469000000000.0,전라남도 장성군 장성읍 역전로 87,57220.0,35.29995636,126.780147,20200411,2020,4,11,13606
508,코로나19로 인한 축제 미정,전라남도,진도군,4690025023.0,진도읍,469000000000.0,전라남도 진도군 진도읍 철마길 25,58915.0,34.48620924,126.2629813,20200101,2020,1,1,12691
509,금산인삼축제,충청남도,금산군,4471025021.0,금산읍,447000000000.0,충청남도 금산군 금산읍 인삼광장로 30,32739.0,36.1000256,127.5007304,20201009,2020,10,9,13280
510,비단고을산꽃축제,충청남도,금산군,4471034030.0,군북면,447000000000.0,충청남도 금산군 군북면 자진뱅이길 95,32717.0,36.19093401,127.5710874,20200418,2020,4,18,16516
511,금산천봄꽃축제,충청남도,금산군,4471025026.0,금산읍,447000000000.0,충청남도 금산군 금산읍 금산천길 28,32746.0,36.1020211,127.48431229999998,20200404,2020,4,4,22471
512,남일면홍도화축제,충청남도,금산군,4471035026.0,남일면,447000000000.0,충청남도 금산군 남일면 대홍로 632-8,32760.0,36.017110100000004,127.5180376,20200418,2020,4,18,29207
513,제20회 사상전통달집놀이,부산광역시,사상구,2653010100.0,삼락동,265000000000.0,부산광역시 사상구 낙동대로1310번길 19 (삼락동),46911.0,35.17701002,128.9776397,20200208,2020,2,8,18188
514,제12회 삼락벚꽃축제,부산광역시,사상구,2653010100.0,삼락동,265000000000.0,부산광역시 사상구 낙동대로1310번길 19 (삼락동),46911.0,35.17701002,128.9776397,20200328,2020,3,28,25088
515,제19회 사상강변축제,부산광역시,사상구,2653010100.0,삼락동,265000000000.0,부산광역시 사상구 낙동대로1310번길 19 (삼락동),46911.0,35.17701002,128.9776397,20200328,2020,3,28,10534
516,제19회 명지시장 전어축제,부산광역시,강서구,2644010400.0,명지동,264000000000.0,부산광역시 강서구 신포길 13-2 (명지동),46717.0,35.112969,128.9321171,20190820,2019,8,20,11719
517,평택호물빛축제,경기도,평택시,4122037030.0,현덕면,412000000000.0,경기도 평택시 현덕면 평택호2길 183,17972.0,36.9233294,126.9266764,20201010,2020,10,10,3665
518,대청호대덕뮤직패스티벌,대전광역시,대덕구,3023012500.0,미호동,302000000000.0,대전광역시 대덕구 대청로 607 (미호동),34316.0,36.47362538,127.4735679,20190406,2019,4,6,16713
519,동춘당문화제,대전광역시,대덕구,3023010700.0,송촌동,302000000000.0,대전광역시 대덕구 동춘당로 80,34402.0,36.36537889,127.4412933,20190419,2019,4,19,16435
520,천안흥타령춤축제,충청남도,천안시 동남구,4413111000.0,삼룡동,441000000000.0,충청남도 천안시 동남구 삼룡4길 118-9 (삼룡동),31072.0,36.78248616,127.1667805,20200923,2020,9,23,29618
521,공주 석장리 세계구석기축제,충청남도,공주시,4415012500.0,석장리동,442000000000.0,충청남도 공주시 금벽로 990 (석장리동),32591.0,36.44795221,127.1875895,20200612,2020,6,12,22875
522,백제문화제,충청남도,공주시,4415012000.0,신관동,442000000000.0,충청남도 공주시 금벽로 368 (신관동),32573.0,36.47021463,127.1274371,20200926,2020,9,26,26732
523,보령머드축제,충청남도,보령시,4418011000.0,신흑동,442000000000.0,충청남도 보령시 머드로 123 (신흑동),33489.0,36.3155199,126.5108563,20200717,2020,7,17,23304
524,무창포신비의바닷길축제,충청남도,보령시,4418025028.0,웅천읍,442000000000.0,충청남도 보령시 웅천읍 열린바다1길 35,33508.0,36.2424253,126.5350884,20200830,2020,8,30,10168
525,류방택 별 축제,충청남도,서산시,4421010100.0,읍내동,442000000000.0,충청남도 서산시 문화로 54 (읍내동),31970.0,36.7861429,126.4486172,20200627,2020,6,27,15299
526,서산해미읍성축제,충청남도,서산시,4421039021.0,해미면,442000000000.0,충청남도 서산시 해미면 남문2로 143,31960.0,36.71355717,126.5503842,20201009,2020,10,9,4009
527,서산국화축제,충청남도,서산시,4421040021.0,고북면,442000000000.0,충청남도 서산시 고북면 복남골길 31-1,32027.0,36.6693265,126.536271,20201030,2020,10,30,9856
528,강경젓갈축제,충청남도,논산시,4423025030.0,강경읍,442000000000.0,충청남도 논산시 강경읍 금백로 45,32930.0,36.15755616,127.0098062,20201016,2020,10,16,22887
529,2020계룡세계군문화엑스포,충청남도,계룡시,4425033023.0,신도안면,443000000000.0,충청남도 계룡시 신도안면 계룡대로 663,32800.0,36.30026666,127.2198246,20200918,2020,9,18,28977
530,왜목해돋이축제,충청남도,당진시,4427010600.0,수청동,443000000000.0,충청남도 당진시 시청1로 1 (수청동),31773.0,36.88973998,126.6459689,20201231,2020,12,31,23087
531,심훈상록문화제,충청남도,당진시,4427010600.0,수청동,443000000000.0,충청남도 당진시 시청1로 1,31773.0,36.889754,126.6459689,20200918,2020,9,18,10940
532,부여서동연꽃축제,충청남도,부여군,4476025028.0,부여읍,448000000000.0,충청남도 부여군 부여읍 궁남로 52,33165.0,36.27145891,126.9136908,20200711,2020,7,11,20896
533,백제문화제,충청남도,부여군,4476025032.0,부여읍,448000000000.0,충청남도 부여군 부여읍 백강로 148,33142.0,36.28714312,126.9068121,20200926,2020,9,26,28911
534,춘장대해수욕장 여름문화예술축제,충청남도,서천군,4477041028.0,서면,448000000000.0,충청남도 서천군 서면 춘장대길 20,33603.0,36.16334922,126.5243355,20200731,2020,7,31,20966
535,자연산 광어.도미 축제,충청남도,서천군,4477041022.0,서면,448000000000.0,충청남도 서천군 서면 서인로 56,33604.0,36.129364200000005,126.5036472,20200516,2020,5,16,5565
536,마량포 해넘이.해돋이 축제,충청남도,서천군,4477041022.0,서면,448000000000.0,충청남도 서천군 서면 서인로 56,33604.0,36.129364200000005,126.5036472,20201231,2020,12,31,2785
537,한산모시문화제,충청남도,서천군,4477034021.0,한산면,448000000000.0,충청남도 서천군 한산면 충절로 1089,33624.0,36.07994424,126.7987047,20200612,2020,6,12,25982
538,청양고추.구기자축제,충청남도,청양군,4479025024.0,청양읍,448000000000.0,충청남도 청양군 청양읍 은천동길 16-6,33303.0,36.44318403,126.7995863,20200904,2020,9,4,12077
539,홍성남당항새조개축제,충청남도,홍성군,4480037027.0,서부면,448000000000.0,충청남도 홍성군 서부면 남당항로213번길 25-62,32206.0,36.53503195,126.467178,20200118,2020,1,18,21912
540,홍성한우바비큐페스티벌,충청남도,홍성군,4480025021.0,홍성읍,448000000000.0,충청남도 홍성군 홍성읍 아문길 27,32228.0,36.6017196,126.6613896,20201030,2020,10,30,18519
541,예산 장터삼국축제,충청남도,예산군,4481025023.0,예산읍,448000000000.0,충청남도 예산군 예산읍 천변로 160,32438.0,36.67611933,126.8479256,20201016,2020,10,16,4650
542,태안국제모래조각 페스티벌,충청남도,태안군,4482535025.0,원북면,448000000000.0,충청남도 태안군 원북면 신두해변길 22-5,32108.0,36.83259279,126.184941,20200809,2020,8,9,24529
543,태안 세계툴립축제,충청남도,태안군,4482525321.0,안면읍,448000000000.0,충청남도 태안군 안면읍 꽃지해안로 400,32166.0,36.50112252,126.3367861,20200414,2020,4,14,16194
544,상주해돋이&물메기축제,경상남도,남해군,4884032022.0,상주면,488000000000.0,경상남도 남해군 상주면 상주로 10-1,52440.0,34.72221206,127.9874449,20201231,2020,12,31,24442
545,가천다랭이마을해맞이행사,경상남도,남해군,4884035023.0,남면,488000000000.0,경상남도 남해군 남면 남면로679번길 21,52436.0,34.7275136,127.8940684,20210101,2021,1,1,27780
546,독일마을 맥주축제,경상남도,남해군,4884033025.0,삼동면,488000000000.0,경상남도 남해군 삼동면 독일로 92,52446.0,34.80085956,128.03843329999998,20201008,2020,10,8,2837
547,2020년 이순신 순국제전,경상남도,남해군,4884037028.0,고현면,488000000000.0,경상남도 남해군 고현면 남해대로 3829,52404.0,34.91252233,127.8578081,20201031,2020,10,31,27714
548,남해1973축제,경상남도,남해군,4884038027.0,설천면,488000000000.0,경상남도 남해군 설천면 남해대로 4216,52400.0,34.94075316,127.872403,20200905,2020,9,5,11046
549,코로나로 미정(감악문화축제),경기도,양주시,4163032021.0,남면,416000000000.0,경기도 양주시 남면 감악산로244번길 169,11404.0,37.89321812,126.9745793,20190908,2019,9,8,28540
550,코로나로 미정(2020 양주 천만송이 천일홍 축제),경기도,양주시,4163010600.0,광사동,416000000000.0,경기도 양주시 광사로 131-66 (광사동),11494.0,37.785795,127.081833,20190921,2019,9,21,6592
551,사하예술제,부산광역시,사하구,2638010300.0,하단동,264000000000.0,부산광역시 사하구 낙동남로1233번길 25 (하단동),49300.0,35.110059,128.9446778,20201018,2020,10,18,14134
552,감천문화마을 골목축제,부산광역시,사하구,2638010800.0,감천동,264000000000.0,부산광역시 사하구 감내2로 203 (감천동),49368.0,35.09748815,129.010624,20190426,2019,4,26,8818
553,하단포구웅어축제,부산광역시,사하구,2638010300.0,하단동,264000000000.0,부산광역시 사하구 하신번영로 253-1 (하단동),49424.0,35.103745,128.9581946,20190524,2019,5,24,2013
554,다대포어항문화축제,부산광역시,사하구,2638010600.0,다대동,264000000000.0,부산광역시 사하구 다대동로8번길 40 (다대동),49522.0,35.05560102,128.9724274,20191115,2019,11,15,25802
555,금천하모니벚꽃축제 2019,서울특별시,금천구,1154510300.0,시흥동,115000000000.0,서울특별시 금천구 시흥대로73길 70 (시흥동),8611.0,37.45706511,126.8960352,20190405,2019,4,5,22360
556,정조대왕 능행차 공동재현,서울특별시,금천구,1154510300.0,시흥동,115000000000.0,서울특별시 금천구 은행나무로 45 (시흥동),8642.0,37.4510151,126.9075078,20191005,2019,10,5,2848
557,제12회 진안고원 수박축제,전라북도,진안군,4572033023.0,동향면,457000000000.0,전라북도 진안군 동향면 진성로 1687,55446.0,35.84147509,127.5747127,20200801,2020,8,1,6379
558,2020 진안홍삼축제,전라북도,진안군,4572025023.0,진안읍,457000000000.0,전라북도 진안군 진안읍 마이산로 160,55438.0,35.773251,127.4162556,20201009,2020,10,9,11342
559,2020 아라마린 워터페스티벌,경기도,김포시,4157025325.0,고촌읍,416000000000.0,경기도 김포시 고촌읍 아라육로270번길 74,10135.0,37.59765509,126.7869691,20200808,2020,8,8,13023
560,DMZ 울트라트레일러닝,경기도,김포시,4157034033.0,대곶면,416000000000.0,경기도 김포시 대곶면 대명항1로 110-36,10041.0,37.6406387,126.539261,20200901,2020,9,1,11034
561,2020 김포 국제무선자동차대회 개최,경기도,김포시,4157025021.0,통진읍,416000000000.0,경기도 김포시 통진읍 김포대로 1966,10014.0,37.68028573,126.6249423,20200917,2020,9,17,14017
562,김포 평화누리길 걷기행사,경기도,김포시,4157036026.0,하성면,416000000000.0,경기도 김포시 하성면 평화공원로 139,10004.0,37.74322967,126.5940602,20200501,2020,5,1,18178
563,2020 김포 도심축제,경기도,김포시,4157010400.0,장기동,416000000000.0,경기도 김포시 김포한강2로24번길 29 (장기동),10079.0,37.64350661,126.676558,20200919,2020,9,19,23543
564,김포통진두레놀이 가마솥밥짓기 경연대회,경기도,김포시,4157010300.0,운양동,416000000000.0,경기도 김포시 김포한강11로 162 (운양동),10077.0,37.6451001,126.6946864,20201001,2020,10,1,10479
565,월곶 저잣거리축제,경기도,김포시,4157035021.0,월곶면,416000000000.0,경기도 김포시 월곶면 애기봉로7번길 29,10024.0,37.71599422,126.5538862,20201017,2020,10,17,13825
566,2018 수원독서문화축제,경기도,수원시 팔달구,4111513000.0,신풍동,411000000000.0,경기도 수원시 팔달구 신풍로23번길 68(신풍동),16258.0,37.283861,127.010433,20180906,2018,9,6,15325
567,2019 수원독서문화축제,경기도,수원시 팔달구,4111513100.0,장안동,411000000000.0,경기도 수원시 팔달구 신풍로 74 (장안동),16252.0,37.287537,127.0135776,20191012,2019,10,12,2249
568,2019 수원연극축제,경기도,수원시 권선구,4111313100.0,서둔동,411000000000.0,경기도 수원시 권선구 서둔로 166 (서둔동),16614.0,37.2667769,126.9850191,20190524,2019,5,24,9664
569,제55회 수원화성문화제,경기도,수원시 팔달구,4111512300.0,남창동,411000000000.0,경기도 수원시 팔달구 행궁로 11 (남창동),16261.0,37.2809881,127.0152227,20181005,2018,10,5,3827
570,제56회 수원화성문화제,경기도,수원시 팔달구,4111512300.0,남창동,411000000000.0,경기도 수원시 팔달구 행궁로 11,16261.0,37.2809881,127.0152227,20191003,2019,10,3,22972
571,2019 수원등불축제,경기도,수원시 팔달구,4111512800.0,매향동,411000000000.0,경기도 수원시 팔달구 수원천로392번길 44-6 (매향동),16254.0,37.28754,127.018085,20191003,2019,10,3,23193
572,2017 음식 문화축제,경기도,수원시 팔달구,4111512300.0,남창동,411000000000.0,경기도 수원시 팔달구 정조로 825 (남창동),16258.0,37.281882,127.014393,20170922,2017,9,22,22797
573,2018 음식 문화축제,경기도,수원시 팔달구,4111512300.0,남창동,411000000000.0,경기도 수원시 팔달구 정조로 825 (남창동),16258.0,37.281882,127.014393,20181005,2018,10,5,22669
574,2019 음식 문화축제,경기도,수원시 팔달구,4111512300.0,남창동,411000000000.0,경기도 수원시 팔달구 정조로 825 (남창동),16258.0,37.281882,127.014393,20191003,2019,10,3,12987
575,보은대추축제,충청북도,보은군,4372025031.0,보은읍,437000000000.0,충청북도 보은군 보은읍 뱃들로 55-1,28937.0,36.48629611,127.723402,20201016,2020,10,16,11197
576,정서진 해넘이 축제,인천광역시,서구,2826011900.0,오류동,283000000000.0,인천광역시 서구 정서진1로 41 (오류동),22850.0,37.55843765,126.6074637,20201231,2020,12,31,6699
577,부산 차이나타운특구 문화축제,부산광역시,동구,2617010100.0,초량동,262000000000.0,부산광역시 동구 초량중로 36 (초량동),48818.0,35.11507608,129.0375502,20201016,2020,10,16,17543
578,영도구룡축제,부산광역시,영도구,2620012100.0,동삼동,262000000000.0,부산광역시 영도구 중리로 44-1 (동삼동),49115.0,35.0749124,129.0684034,20200101,2020,1,1,19148
579,동삼풍어제,부산광역시,영도구,2620012100.0,동삼동,262000000000.0,부산광역시 영도구 하리해안길 12 (동삼동),49125.0,35.06937472,129.08093970000002,20200101,2020,1,1,16669
580,발복기원제,부산광역시,영도구,2620012000.0,청학동,262000000000.0,부산광역시 영도구 벚꽃길 117,49087.0,35.081954100000004,129.0552017,20200611,2020,6,11,18761
581,제15회 수국꽃 문화축제,부산광역시,영도구,2620012100.0,동삼동,262000000000.0,부산광역시 영도구 전망로 119 (동삼동),49127.0,35.05597301,129.0897518,20200101,2020,1,1,4589
582,응봉산 해맞이축제,서울특별시,성동구,1120010800.0,응봉동,112000000000.0,서울특별시 성동구 독서당로60길 13-1,4742.0,37.548551,127.030821,20200101,2020,1,1,1074
583,감자옥수수 축제,충청북도,옥천군,4373033021.0,안내면,437000000000.0,충청북도 옥천군 안내면 현리길 91-10,29006.0,36.39260006,127.6597718,20200718,2020,7,18,9475
584,지용제,충청북도,옥천군,4373025024.0,옥천읍,437000000000.0,충청북도 옥천군 옥천읍 향수길 56,29030.0,36.31501588,127.5815719,20201015,2020,10,15,17453
585,음성품바축제,충청북도,음성군,4377025021.0,음성읍,438000000000.0,충청북도 음성군 음성읍 예술로 102,27692.0,36.93152313,127.6806296,20200826,2020,8,26,6311
586,설성문화제,충청북도,음성군,4377025021.0,음성읍,438000000000.0,충청북도 음성군 음성읍 수정로 38,27703.0,36.93427623,127.6906949,20201016,2020,10,16,13903
587,음성명작페스티벌,충청북도,음성군,4377025322.0,금왕읍,438000000000.0,충청북도 음성군 금왕읍 무극로 370,27627.0,36.99372794,127.604295,20200923,2020,9,23,8665
588,계양산국악제,인천광역시,계양구,2824510200.0,계산동,282000000000.0,인천광역시 계양구 주부토로 570 (계산동),21030.0,37.54504438,126.7289968,20200912,2020,9,12,21637
589,제32회 시민의 날 문화행사,경기도,오산시,4137010100.0,오산동,414000000000.0,경기도 오산시 경기동로 15 (오산동),18131.0,37.15685632,127.0726163,20200925,2020,9,25,8782
590,제10회 오산 독산성 문화제,경기도,오산시,4137011400.0,지곶동,414000000000.0,경기도 오산시 독산성로269번길 144 (지곶동),18102.0,37.183615,127.0197889,20201016,2020,10,16,22017
591,2020  제14회 종합예술제,경기도,오산시,4137010900.0,은계동,414000000000.0,경기도 오산시 현충로 100 (은계동),18131.0,37.16022346,127.077061,20201004,2020,10,4,13187
592,2020 오산 통기타 페스티벌,경기도,오산시,4137010100.0,오산동,414000000000.0,경기도 오산시 경기동로 15 (오산동),18131.0,37.15685632,127.0726163,20200925,2020,9,25,29589
593,정월대보름 달맞이 행사,대구광역시,동구,2714011500.0,서호동,271000000000.0,대구광역시 동구 안심로50길 25,41101.0,37.89638739,127.0532018,20200208,2020,2,8,16679
594,왕방산 국제MTB대회,경기도,동두천시,4125010300.0,생연동,413000000000.0,경기도 동두천시 어등로 45 (생연동),11320.0,37.90083977,127.0704987,20191020,2019,10,20,13751
595,2019 제4회 이담농악두드림대축제,경기도,동두천시,4125010300.0,생연동,413000000000.0,경기도 동두천시 중앙로 268 (생연동),11329.0,37.90543939,127.0546796,20190615,2019,6,15,4815
596,제4회 동두천 국제 트레일러닝 대회,경기도,동두천시,4125010300.0,생연동,413000000000.0,경기도 동두천시 어등로 45 (생연동),11320.0,37.90083977,127.0704987,20190420,2019,4,20,19984
597,상패남산축제,경기도,동두천시,4125011200.0,상패동,413000000000.0,경기도 동두천시 어수로 8 (상패동),11340.0,37.90537169,127.0442776,20180908,2018,9,8,10151
598,천사마라톤대회,경기도,동두천시,4125010300.0,생연동,413000000000.0,경기도 동두천시 어등로 45 (생연동),11320.0,37.90083977,127.0704987,20181003,2018,10,3,24948
599,동두천 청소년 별자리과학 축제,경기도,동두천시,4125010300.0,생연동,413000000000.0,경기도 동두천시 어등로 45 (생연동),11320.0,37.90083977,127.0704987,20181013,2018,10,13,28001
600,동두천시 자원봉사 축제,경기도,동두천시,4125010200.0,지행동,413000000000.0,경기도 동두천시 중앙로 125 (지행동),11347.0,37.89275541,127.0517461,20181020,2018,10,20,28970
601,DDC할로윈클럽데이,경기도,동두천시,4125010600.0,보산동,413000000000.0,경기도 동두천시 상패로216번길 42 (보산동),11324.0,37.91584622,127.0565068,20181027,2018,10,27,14749
602,2020 대한민국 국향대전,전라남도,함평군,4686025023.0,함평읍,469000000000.0,전라남도 함평군 함평읍 함장로 1160,57143.0,35.05618964,126.5199487,20201016,2020,10,16,11710
603,제13회 마포나루 새우젓축제,서울특별시,마포구,1144012500.0,성산동,114000000000.0,서울특별시 마포구 월드컵로 243-60 (성산동),3901.0,37.56352625,126.8984363,20201016,2020,10,16,15502
604,제11회서면우리문화축제,부산광역시,부산진구,2623010500.0,범전동,262000000000.0,부산광역시 부산진구 시민공원로 73 (범전동),47197.0,35.16545561,129.0558558,20201015,2020,10,15,7005
605,제10회 부산진구 북페스티벌,부산광역시,부산진구,2623010500.0,범전동,262000000000.0,부산광역시 부산진구 시민공원로 73 (범전동),47197.0,35.16545561,129.0558558,20200919,2020,9,19,24432
606,서면메디컬스트리트 축제,부산광역시,부산진구,2623010300.0,부전동,262000000000.0,부산광역시 부산진구 가야대로 777,47257.0,35.1579588,129.0566547,20201023,2020,10,23,12370
607,전포카페거리축제,부산광역시,부산진구,2623010200.0,전포동,262000000000.0,부산광역시 부산진구 동천로 92 (전포동),47293.0,35.1570356,129.0630291,20201009,2020,10,9,5721
608,해맞이축제,서울특별시,강서구,1150011000.0,개화동,115000000000.0,서울특별시 강서구 금낭화로17길 213 (개화동),7504.0,37.58138626,126.8054465,20200101,2020,1,1,11836
609,개화산 봄꽃축제,서울특별시,강서구,1150010900.0,방화동,115000000000.0,서울특별시 강서구 금낭화로 176 (방화동),7508.0,37.58093172,126.8141197,20200418,2020,4,18,2118
610,우장산 신록축제,서울특별시,강서구,1150010600.0,내발산동,115000000000.0,서울특별시 강서구 우장산로 66 (내발산동),7684.0,37.55343651,126.8436485,20200523,2020,5,23,23735
611,허준축제,서울특별시,강서구,1150010400.0,가양동,115000000000.0,서울특별시 강서구 허준로5길 42 (가양동),7525.0,37.56759867,126.8537291,20201009,2020,10,9,3495
612,섬강축제,강원도,원주시,4213033021.0,지정면,421000000000.0,강원도 원주시 지정면 소금산길 26,26359.0,37.36489188,127.8325403,20201001,2020,10,1,4833
613,원주 용수골꽃양귀비축제,강원도,원주시,4213038022.0,판부면,421000000000.0,강원도 원주시 판부면 용수골길 326,26402.0,37.2839426,127.9404457,20200523,2020,5,23,28704
614,원주 다이내믹댄싱카니발,강원도,원주시,4213010600.0,명륜동,421000000000.0,강원도 원주시 단구로 170 (명륜동),26447.0,37.336428000000005,127.9462616,20200908,2020,9,8,2861
615,원주 한지문화제,강원도,원주시,4213011500.0,무실동,421000000000.0,강원도 원주시 한지공원길 151 (무실동),26478.0,37.33437725,127.9353773,20200903,2020,9,3,7262
616,울산고래축제,울산광역시,남구,3114011900.0,매암동,311000000000.0,울산광역시 남구 장생포고래로288번길 20 (매암동),44780.0,35.50439928,129.387293,20200619,2020,6,19,6059
617,부안마실축제,전라북도,부안군,4580025022.0,부안읍,458000000000.0,전라북도 부안군 부안읍 매창로 89,56312.0,35.71882124,126.7286953,20200918,2020,9,18,16793
618,곰소젓갈발효축제,전라북도,부안군,4580037024.0,진서면,458000000000.0,전라북도 부안군 진서면 곰소7길 16,56346.0,35.58746134,126.6126718,20200925,2020,9,25,18655
619,K-POP광장 야외시네마,서울특별시,강남구,1168010500.0,삼성동,117000000000.0,서울특별시 강남구 영동대로 513 (삼성동),6164.0,37.51182328,127.0591597,20190426,2019,4,26,1717
620,K-POP 뮤직페스티벌,서울특별시,강남구,1168010500.0,삼성동,117000000000.0,서울특별시 강남구 영동대로 513 (삼성동),6164.0,37.51182328,127.0591597,20190530,2019,5,30,19614
621,2019 강남페스티벌 패션쇼,서울특별시,강남구,1168010500.0,삼성동,117000000000.0,서울특별시 강남구 영동대로 513 (삼성동),6164.0,37.51182328,127.0591597,20190928,2019,9,28,1417
622,2019 강남페스티벌,서울특별시,강남구,1168010500.0,삼성동,117000000000.0,서울특별시 강남구 영동대로 513 (삼성동),6164.0,37.51182328,127.0591597,20190926,2019,9,26,27844
623,C-festival 2019,서울특별시,강남구,1168010500.0,삼성동,117000000000.0,서울특별시 강남구 영동대로 513 (삼성동),6164.0,37.51182328,127.0591597,20190502,2019,5,2,8796
624,순창장류축제,전라북도,순창군,4577025025.0,순창읍,458000000000.0,전라북도 순창군 순창읍 민속마을길 6-3,56048.0,35.36860021,127.1099773,20201016,2020,10,16,18694
625,완주와일드푸드축제,전라북도,완주군,4571036029.0,고산면,457000000000.0,전라북도 완주군 고산면 고산휴양림로 89,55312.0,35.97398096,127.2315514,20201009,2020,10,9,25362
626,완주 프러포즈축제,전라북도,완주군,4571035023.0,구이면,457000000000.0,전라북도 완주군 구이면 덕천전원길 232-58,55361.0,35.72601868,127.136162,20200516,2020,5,16,9259
627,2019 안성맞춤 남사당 바우덕이축제,경기도,안성시,4155031033.0,보개면,416000000000.0,경기도 안성시 보개면 남사당로 198,17508.0,37.03286724,127.3078041,20191002,2019,10,2,16742
628,제15회 영양산나물축제,경상북도,영양군,4776025022.0,영양읍,478000000000.0,경상북도 영양군 영양읍 군청길 37,36537.0,36.66718111,129.11236680000002,20190502,2019,5,2,9699
629,2019 영양고추 H.O.T Festival,서울특별시,중구,1114010300.0,태평로1가,111000000000.0,서울특별시 중구 세종대로 110 (태평로1가),4524.0,37.56631769,126.9778284,20190827,2019,8,27,19604
630,춘장대해수욕장 여름문화예술축제,충청남도,서천군,4477041028.0,서면,448000000000.0,충청남도 서천군 서면 춘장대길 20,33603.0,36.16334922,126.5243355,20200731,2020,7,31,2764
631,자연산 광어.도미 축제,충청남도,서천군,4477041022.0,서면,448000000000.0,충청남도 서천군 서면 서인로 56,33604.0,36.129364200000005,126.5036472,20200516,2020,5,16,29020
632,마량포 해넘이.해돋이 축제,충청남도,서천군,4477041022.0,서면,448000000000.0,충청남도 서천군 서면 서인로 56,33604.0,36.129364200000005,126.5036472,20201231,2020,12,31,21135
633,홍원항 자연산 전어.꽃게 축제,충청남도,서천군,4477041028.0,서면,448000000000.0,충청남도 서천군 서면 홍원길 130-3,33603.0,36.15886,126.4992204,20200919,2020,9,19,12400
634,한산모시문화제,충청남도,서천군,4477034021.0,한산면,448000000000.0,충청남도 서천군 한산면 충절로 1089,33624.0,36.0799445,126.7987047,20200612,2020,6,12,16185
635,서천철새여행,충청남도,서천군,4477031033.0,마서면,448000000000.0,충청남도 서천군 마서면 장산로 916,33657.0,36.02280046,126.7426918,20201122,2020,11,22,16073
636,청송사과축제,경상북도,청송군,4775025021.0,청송읍,478000000000.0,경상북도 청송군 청송읍 강변로 87,37431.0,36.432499,129.054312,20201028,2020,10,28,12685
637,서구민한가족대축제,광주광역시,서구,2914012000.0,치평동,291000000000.0,광주광역시 서구 상무공원로 101 (치평동),61953.0,35.15339511,126.8410975,20200501,2020,5,1,11714
638,전국 애송시 낭송대회,광주광역시,서구,2914013000.0,금호동,291000000000.0,광주광역시 서구 풍금로 182 (금호동),62015.0,35.13196581,126.8598511,20200501,2020,5,1,8686
639,만드리 풍년제,광주광역시,서구,2914012500.0,서창동,291000000000.0,광주광역시 서구 서창발산길 10 (서창동),62077.0,35.10717460000001,126.82313870000002,20200701,2020,7,1,20359
640,영산강 서창들녁 억새축제,광주광역시,서구,2914012900.0,벽진동,291000000000.0,광주광역시 서구 서창둑길 377 (벽진동),62076.0,35.13849504,126.82873899999998,20201001,2020,10,1,15255
641,서구여성합창단 정기 연주회,광주광역시,서구,2914010600.0,농성동,291000000000.0,광주광역시 서구 경열로 33 (농성동),61928.0,35.15202894,126.890113,20201101,2020,11,1,11015
642,둔내고랭지토마토축제,강원도,횡성군,4273033027.0,둔내면,427000000000.0,강원도 횡성군 둔내면 둔내로51번길 17,25264.0,37.511926200000005,128.2190272,20200814,2020,8,14,28427
643,횡성더덕축제,강원도,횡성군,4273035024.0,청일면,427000000000.0,강원도 횡성군 청일면 유동로 17,25254.0,37.58392059,128.1502908,20200918,2020,9,18,27906
644,안흥찐빵축제,강원도,횡성군,4273032021.0,안흥면,427000000000.0,강원도 횡성군 안흥면 안흥로 27,25271.0,37.41281125,128.1561222,20201009,2020,10,9,4014
645,횡성한우축제,강원도,횡성군,4273025022.0,횡성읍,427000000000.0,강원도 횡성군 횡성읍 문예로 75,25236.0,37.48902982,127.9759576,20201015,2020,10,15,5887
646,와룡문화제,경상남도,사천시,4824033032.0,용현면,482000000000.0,경상남도 사천시 용현면 시청로 77,52539.0,35.00361954,128.0642075,20190426,2019,4,26,4782
647,석촌호수벚꽃축제,서울특별시,송파구,1171010100.0,잠실동,117000000000.0,서울특별시 송파구 석촌호수로 197 (잠실동),5608.0,37.5066934,127.0989034,20200403,2020,4,3,29962
648,한성백제문화제,서울특별시,송파구,1171011100.0,방이동,117000000000.0,서울특별시 송파구 올림픽로 424 (방이동),5540.0,37.52034114,127.1155184,20200923,2020,9,23,9286
649,제23회 전라병영성 축제,전라남도,강진군,4681038024.0,병영면,468000000000.0,전라남도 강진군 병영면 병영성로 175,59214.0,34.72004452,126.8171446,20200429,2020,4,29,24275
650,제48회 강진청자축제,전라남도,강진군,4681033022.0,대구면,468000000000.0,전라남도 강진군 대구면 청자촌길 33,59263.0,34.50866041,126.8008375,20201008,2020,10,8,19113
651,제5회 강진만 춤추는 갈대축제,전라남도,강진군,4681025025.0,강진읍,468000000000.0,전라남도 강진군 강진읍 남당로 97-23,59240.0,34.6259705,126.7724317,20201023,2020,10,23,14207
652,2020 순천 푸드앤아트페스티벌(날짜변경가능),전라남도,순천시,4615010800.0,석현동,462000000000.0,전라남도 순천시 중앙로 232 (석현동),57938.0,34.966677600000004,127.4860721,20200901,2020,9,1,6319
653,제3회 도사동 행복 항꾸네 축제,전라남도,순천시,4615012700.0,덕월동,462000000000.0,전라남도 순천시 순천만길 27 (덕월동),58026.0,34.92531333,127.4936554,20200529,2020,5,29,4835
654,제5회 도시농업 어울림 한마당,전라남도,순천시,4615031022.0,해룡면,462000000000.0,전라남도 순천시 해룡면 매안로 162,58007.0,34.9366208,127.5481891,20200919,2020,9,19,21437
655,제22회 순천만 갈대축제,전라남도,순천시,4615013100.0,대대동,462000000000.0,전라남도 순천시 순천만길 513-25 (대대동),58027.0,34.88553578,127.5096727,20201030,2020,10,30,27797
656,제27회 낙안읍성 민속문화축제,전라남도,순천시,4615038021.0,낙안면,462000000000.0,전라남도 순천시 낙안면 충민길 30,57918.0,34.90632579,127.3417663,20201023,2020,10,23,11336
657,제7회 순천시 전통향토음식 축제,전라남도,순천시,4615038021.0,낙안면,462000000000.0,전라남도 순천시 낙안면 충민길 30,57918.0,34.90632579,127.3417663,20201023,2020,10,23,21907
658,제5회 도시농업 어울림 한마당,전라남도,순천시,4615031022.0,해룡면,462000000000.0,전라남도 순천시 해룡면 매안로 162,58007.0,34.9366208,127.5481891,20200919,2020,9,19,3365
659,제26회 순천시민의 날 행사,전라남도,순천시,4615012600.0,오천동,462000000000.0,전라남도 순천시 국가정원1호길 47 (오천동),58026.0,34.92888588,127.4999591,20201015,2020,10,15,29196
660,제9회 웃장 국밥축제,전라남도,순천시,4615012200.0,동외동,462000000000.0,전라남도 순천시 북문길 40 (동외동),57939.0,34.95864506,127.48503490000002,20200908,2020,9,8,26458
661,순천만국가정원 겨울 축제,전라남도,순천시,4615012600.0,오천동,462000000000.0,전라남도 순천시 국가정원1호길 47 (오천동),58026.0,34.92888588,127.4999591,20201113,2020,11,13,8239
662,청바지&청소년 “끼” 축제,전라남도,순천시,4615031023.0,해룡면,462000000000.0,전라남도 순천시 해룡면 기적의도서관길 60,57986.0,34.94715332,127.527648,20201024,2020,10,24,3404
663,제5회 신대지구 스마트 문화제,전라남도,순천시,4615031022.0,해룡면,462000000000.0,전라남도 순천시 해룡면 매안로 162,58007.0,34.9366208,127.5481891,20200926,2020,9,26,26120
664,제5회 순천철도마을축제 및 제3회 순천철도어린이동요제,전라남도,순천시,4615011100.0,조곡동,462000000000.0,전라남도 순천시 자경1길 13 (조곡동),57955.0,34.95003795,127.4985767,20200530,2020,5,30,15760
665,제3회 마을공동체 동아리축제,전라남도,순천시,4615011400.0,연향동,462000000000.0,전라남도 순천시 연향번영길 102 (연향동),57967.0,34.95113789,127.5183242,20200718,2020,7,18,15268
666,제3회 풍덕동 장미축제,전라남도,순천시,4615011500.0,풍덕동,462000000000.0,전라남도 순천시 풍덕1길 40 (풍덕동),57961.0,34.94185866,127.4972968,20200516,2020,5,16,13585
667,2020 순천시민 소망기원 정월대보름행사,전라남도,순천시,4615012600.0,오천동,462000000000.0,전라남도 순천시 국가정원1호길 47 (오천동),58026.0,34.92888588,127.4999591,20200208,2020,2,8,12084
668,문화재야행,전라남도,순천시,4615012000.0,남내동,462000000000.0,전라남도 순천시 중앙로 90-1 (남내동),57942.0,34.9536946,127.4841518,20200724,2020,7,24,6428
669,2020 동아시아문화도시 개막행사,전라남도,순천시,4615012600.0,오천동,462000000000.0,전라남도 순천시 국가정원1호길 47 (오천동),58026.0,34.92888588,127.4999591,20200501,2020,5,1,2776
670,한중일 전통 민속예술한마당,전라남도,순천시,4615012600.0,오천동,462000000000.0,전라남도 순천시 국가정원1호길 47 (오천동),58026.0,34.92888588,127.4999591,20200612,2020,6,12,19348
671,한중일 미래예술융합 페스티벌,전라남도,순천시,4615012600.0,오천동,462000000000.0,전라남도 순천시 국가정원1호길 47 (오천동),58026.0,34.92888588,127.4999591,20200716,2020,7,16,24547
672,동아시아 청소년 예술제,전라남도,순천시,4615010800.0,석현동,462000000000.0,전라남도 순천시 중앙로 232 (석현동),57938.0,34.966677600000004,127.4860721,20200806,2020,8,6,25895
673,동아시아 그림책 및 웹툰 페스티벌,전라남도,순천시,4615012000.0,남내동,462000000000.0,전라남도 순천시 중앙로 90-1 (남내동),57942.0,34.9536946,127.4841518,20200904,2020,9,4,27375
674,한중일 평화포럼 + 한중일 팝뮤직 페스티벌,전라남도,순천시,4615012600.0,오천동,462000000000.0,전라남도 순천시 국가정원1호길 47 (오천동),58026.0,34.92888588,127.4999591,20201016,2020,10,16,6855
675,2020 동아시아문화도시 폐막행사,전라남도,순천시,4615010800.0,석현동,462000000000.0,전라남도 순천시 삼산로 16 (석현동),57938.0,34.97055686,127.4852365,20201120,2020,11,20,24101
676,2020 대한민국 정원산업박람회,전라남도,순천시,4615012600.0,오천동,462000000000.0,전라남도 순천시 국가정원1호길 47 (오천동),58026.0,34.92888588,127.4999591,20201016,2020,10,16,24050
677,제7회 한평정원 페스티벌,전라남도,순천시,4615012600.0,오천동,462000000000.0,전라남도 순천시 국가정원1호길 47 (오천동),58026.0,34.92888588,127.4999591,20200925,2020,9,25,27629
678,한중일 전통 민속예술한마당,전라남도,순천시,4615012600.0,오천동,462000000000.0,전라남도 순천시 국가정원1호길 47 (오천동),58026.0,34.92888588,127.4999591,20200612,2020,6,12,16025
679,한중일 미래예술융합 페스티벌,전라남도,순천시,4615012600.0,오천동,462000000000.0,전라남도 순천시 국가정원1호길 47 (오천동),58026.0,34.92888588,127.4999591,20200716,2020,7,16,16977
680,동아시아 청소년 예술제,전라남도,순천시,4615010800.0,석현동,462000000000.0,전라남도 순천시 중앙로 232 (석현동),57938.0,34.966677600000004,127.4860721,20200806,2020,8,6,4602
681,동아시아 그림책 및 웹툰 페스티벌,전라남도,순천시,4615012000.0,남내동,462000000000.0,전라남도 순천시 중앙로 90-1 (남내동),57942.0,34.9536946,127.4841518,20200904,2020,9,4,26454
682,한중일 평화포럼 + 한중일 팝뮤직 페스티벌,전라남도,순천시,4615012600.0,오천동,462000000000.0,전라남도 순천시 국가정원1호길 47 (오천동),58026.0,34.92888588,127.4999591,20201016,2020,10,16,19583
683,2020 동아시아문화도시 폐막행사,전라남도,순천시,4615010800.0,석현동,462000000000.0,전라남도 순천시 삼산로 16 (석현동),57938.0,34.97055686,127.4852365,20201120,2020,11,20,23262
684,2020 대한민국정원산업박람회,전라남도,순천시,4615012600.0,오천동,462000000000.0,전라남도 순천시 국가정원1호길 47 (오천동),58026.0,34.92888588,127.4999591,20201016,2020,10,16,17779
685,순천만국가정원화훼장식 경진대회,전라남도,순천시,4615012600.0,오천동,462000000000.0,전라남도 순천시 국가정원1호길 47 (오천동),58026.0,34.92888588,127.4999591,20201023,2020,10,23,14943
686,제23회 보령머드축제,충청남도,보령시,4418011000.0,신흑동,442000000000.0,충청남도 보령시 대해로 897-15 (신흑동),33487.0,36.304496,126.517026,20200717,2020,7,17,20727
687,제22회 무창포 신비의 바닷길 축제,충청남도,보령시,4418025028.0,웅천읍,442000000000.0,충청남도 보령시 웅천읍 열린바다1길 10,33508.0,36.244576,126.536544,20200918,2020,9,18,7191
688,제21회 만세보령문화제,충청남도,보령시,4418010500.0,명천동,442000000000.0,충청남도 보령시 성주산로 77 (명천동),33483.0,36.332811,126.6120001,20201009,2020,10,9,17566
689,제13회 신성한마음축제,대전광역시,유성구,3020012500.0,신성동,302000000000.0,대전광역시 유성구 가정로 120 (신성동),34128.0,36.38422742,127.357276,20190810,2019,8,10,2956
690,제17회 한여름밤의 축제,대전광역시,유성구,3020014100.0,전민동,302000000000.0,대전광역시 유성구 엑스포로 476 (전민동),34049.0,36.3985684,127.4053327,20190824,2019,8,24,4024
691,제3회 노은3동한마음축제,대전광역시,유성구,3020012000.0,지족동,302000000000.0,대전광역시 유성구 지족로 240,34073.0,36.38411195,127.305374,20190920,2019,9,20,21810
692,2019 노은한마음축제,대전광역시,유성구,3020013200.0,하기동,302000000000.0,대전광역시 유성구 북유성대로 228 (하기동),34061.0,36.38620154,127.319542,20190927,2019,9,27,26289
693,제9회 관평골축제,대전광역시,유성구,3020014600.0,관평동,302000000000.0,대전광역시 유성구 테크노중앙로 88,34030.0,36.424392700000006,127.3940968,20191011,2019,10,11,14134
694,제14회 구즉한마당축제,대전광역시,유성구,3020014700.0,송강동,302000000000.0,대전광역시 유성구 송강로42번길 34 (송강동),34008.0,36.43500958,127.3841005,20191012,2019,10,12,21964
695,제21회 진잠주민화합한마당,대전광역시,유성구,3020010100.0,원내동,302000000000.0,대전광역시 유성구 진잠로59번길 53 (원내동),34229.0,36.29952727,127.3150867,20191019,2019,10,19,27995
696,익산서동축제,전라북도,익산시,4514040021.0,금마면,451000000000.0,전라북도 익산시 금마면 고도9길 41-14,54572.0,36.00153068,127.0570706,20200502,2020,5,2,27816
697,천만송이 국화축제,전라북도,익산시,4514012300.0,어양동,451000000000.0,전라북도 익산시 하나로 322 (어양동),54567.0,35.94972951,126.9861274,20201030,2020,10,30,3495
698,보석대축제,전라북도,익산시,4514041032.0,왕궁면,451000000000.0,전라북도 익산시 왕궁면 호반로 8,54575.0,35.99061351,127.102548,20200403,2020,4,3,13465
699,제24회 단양온달문화축제,충청북도,단양군,4380033022.0,영춘면,438000000000.0,충청북도 단양군 영춘면 온달로 23,27020.0,37.06295564,128.4929221,20201023,2020,10,23,28608
700,제38회 단양소백산철쭉제,충청북도,단양군,4380025034.0,단양읍,438000000000.0,충청북도 단양군 단양읍 소백산등산길 12,27024.0,36.9647819,128.4207808,20200528,2020,5,28,1051
701,강동선사문화축제,서울특별시,강동구,1174010700.0,암사동,117000000000.0,서울특별시 강동구 올림픽로 875 (암사동),5239.0,37.55985381,127.1308316,20191011,2019,10,11,11170
702,제37회고싸움놀이축제,광주광역시,남구,2915512300.0,칠석동,292000000000.0,광주광역시 남구 고싸움로 2 (칠석동),61758.0,35.06974364,126.837519,20190330,2019,3,30,1395
703,2019고싸움놀이축제,광주광역시,동구,2911011300.0,광산동,291000000000.0,광주광역시 동구 문화전당로 38 (광산동),61485.0,35.14691459,126.91999540000002,20190811,2019,8,11,21594
704,굿모닝 양림,광주광역시,남구,2915510100.0,사동,292000000000.0,광주광역시 남구 사직길 49-1 (사동),61638.0,35.141623100000004,126.91149409999998,20191010,2019,10,10,4860
705,2019 금정산성축제,부산광역시,금정구,2641011300.0,금성동,264000000000.0,부산광역시 금정구 동문로 38,46237.0,35.2453467,129.06357179999998,20190524,2019,5,24,15327
706,제11회 푸른 화성 지키기 환경자전거 대행진,경기도,화성시,4159012700.0,반송동,416000000000.0,경기도 화성시 동탄공원로1길 26-23 (반송동),18436.0,37.20375726,127.0612119,20200425,2020,4,25,14799
707,제21회 화성 효 마라톤 대회,경기도,화성시,4159025938.0,향남읍,416000000000.0,경기도 화성시 향남읍 향남로 470,18588.0,37.13754285,126.9242553,20200509,2020,5,9,23723
708,제13회 봄사랑 가족축제,경기도,화성시,4159013500.0,산척동,416000000000.0,경기도 화성시 동탄순환대로12길 67 (산척동),18503.0,37.16666764,127.1012734,20200516,2020,5,16,14504
709,화성뱃놀이축제,경기도,화성시,4159035021.0,서신면,416000000000.0,경기도 화성시 서신면 당성로 339-9,18554.0,37.20142534,126.7014343,20200528,2020,5,28,19969
710,2020 화성송산포도축제,경기도,화성시,4159035031.0,서신면,416000000000.0,경기도 화성시 서신면 궁평항로 1049-24,18556.0,37.11602854,126.6812741,20200905,2020,9,5,25188
711,정조 효 문화제,경기도,화성시,4159012500.0,송산동,416000000000.0,경기도 화성시 용주로 136 (송산동),18347.0,37.21177787,127.0056149,20201010,2020,10,10,10136
712,2020 제9회 평생학습박람회,경기도,화성시,4159025938.0,향남읍,416000000000.0,경기도 화성시 향남읍 향남로 470,18588.0,37.13754285,126.9242553,20201017,2020,10,17,17848
713,화성시민 한마을 체육대회,경기도,화성시,4159025938.0,향남읍,416000000000.0,경기도 화성시 향남읍 향남로 470,18588.0,37.13754285,126.9242553,20201017,2020,10,17,8871
714,동해무릉제,강원도,동해시,4217010100.0,천곡동,422000000000.0,강원도 동해시 중앙로 250 (천곡동),25769.0,37.5230127,129.1143227,20201009,2020,10,9,20192
715,서울장미축제,서울특별시,중랑구,1126010400.0,묵동,113000000000.0,"서울특별시 중랑구 중랑천로 332 (묵동, 묵동한국아파트)",2003.0,37.6148099,127.073526,20200515,2020,5,15,8364
716,용마폭포 문화예술축제,서울특별시,중랑구,1126010100.0,면목동,113000000000.0,서울특별시 중랑구 용마산로 250-12 (면목동),2257.0,37.573335,127.089125,20201010,2020,10,10,15014
717,의왕철도축제,경기도,의왕시,4143011000.0,월암동,414000000000.0,경기도 의왕시 왕송못동로 307 (월암동),16107.0,37.30712099,126.95314740000002,20190504,2019,5,4,20258
718,의왕백운예술제,경기도,의왕시,4143010600.0,학의동,414000000000.0,경기도 의왕시 백운로 526 (학의동),16012.0,37.38321292,127.0007588,20190921,2019,9,21,25809
719,의왕철도축제,경기도,의왕시,4143011000.0,월암동,414000000000.0,경기도 의왕시 왕송못동로 307 (월암동),16107.0,37.30712099,126.95314740000002,20200504,2020,5,4,11389
720,의왕백운호수축제,경기도,의왕시,4143010600.0,학의동,414000000000.0,경기도 의왕시 백운로 526 (학의동),16012.0,37.38321292,127.0007588,20200919,2020,9,19,13147
721,제20회광안리어방축제,부산광역시,수영구,2650010400.0,광안동,265000000000.0,부산광역시 수영구 광안해변로 219 (광안동),48303.0,35.15377436,129.1185216,20190424,2019,4,24,25964
722,2014 안양 아줌마축제,경기도,안양시 동안구,4117310300.0,평촌동,412000000000.0,경기도 안양시 동안구 관평로 149 (평촌동),14067.0,37.39013727,126.96133020000002,20140830,2014,8,30,5065
723,강감찬축제,서울특별시,관악구,1162010100.0,봉천동,116000000000.0,서울특별시 관악구 관악로 145,8832.0,37.47820977,126.95150320000002,20201016,2020,10,16,26339
724,포항국제불빛축제,경상북도,포항시 남구,4711110300.0,해도동,471000000000.0,경상북도 포항시 남구 희망대로 967,37810.0,36.017859,129.374454,20190531,2019,5,31,12509
