,축제명,시도명,시군구명,법정동 코드,법정동 이름,도로명주소 코드,도로명주소,zip_cd,위도,경도,축제일,연,월,일,방문객수
211,삼척정월대보름축제,강원도,삼척시,4223011900,성남동,4.22E+11,강원도 삼척시 엑스포로 45 (성남동),25919,37.43896231,129.160145,20200207,2020,2,7,26510
242,함백산야생화축제,강원도,정선군,4277025321,고한읍,4.28E+11,강원도 정선군 고한읍 함백산로 865,26157,37.14853562,128.898962,20200808,2020,8,8,3709
244,정선아리랑제,강원도,정선군,4277025021,정선읍,4.28E+11,강원도 정선군 정선읍 봉양3길 17,26131,37.38024298,128.6602287,20200917,2020,9,17,14628
325,강릉망월제,강원도,강릉시,4215012100,노암동,4.22E+11,강원도 강릉시 단오장길 1 (노암동),25586,37.74820212,128.8950397,20200208,2020,2,8,16421
369,인제빙어축제,강원도,인제군,4281031024,남면,4.28E+11,강원도 인제군 남면 모루박길 17-46,24646,37.98808996,128.0955517,20200118,2020,1,18,29876
371,대관령눈꽃축제,강원도,평창군,4276038024,대관령면,4.28E+11,강원도 평창군 대관령면 올림픽로 109,25347,37.670709,128.704625,20200117,2020,1,17,25443
372,오대산문화축전,강원도,평창군,4276036027,진부면,4.28E+11,강원도 평창군 진부면 오대산로 413-28,25318,37.73403976,128.5875972,20201008,2020,10,8,25091
379,태백산눈축제,강원도,태백시,4219010100,황지동,4.22E+11,강원도 태백시 태붐로 21 (황지동),26023,37.16421694,128.9865547,20200110,2020,1,10,26994
381,강릉단오제,강원도,강릉시,4215012100,노암동,4.22E+11,강원도 강릉시 단오장길 12,25586,37.74820212,128.8950714,20200621,2020,6,21,6571
382,난설헌허초희 문화제,강원도,강릉시,4215011200,초당동,4.22E+11,강원도 강릉시 난설헌로193번길 1-16 (초당동),25466,37.79187317,128.9096453,20200901,2020,9,1,13065
383,허균문화제,강원도,강릉시,4215011200,초당동,4.22E+11,강원도 강릉시 난설헌로193번길 1-16 (초당동),25466,37.79187317,128.9096453,20201010,2020,10,10,5332
384,강릉커피축제,강원도,강릉시,4215011100,포남동,4.22E+11,강원도 강릉시 수리골길 102 (포남동),25472,37.77929864,128.8970866,20201008,2020,10,8,5828
612,섬강축제,강원도,원주시,4213033021,지정면,4.21E+11,강원도 원주시 지정면 소금산길 26,26359,37.36489188,127.8325403,20201001,2020,10,1,4833
613,원주 용수골꽃양귀비축제,강원도,원주시,4213038022,판부면,4.21E+11,강원도 원주시 판부면 용수골길 326,26402,37.2839426,127.9404457,20200523,2020,5,23,28704
614,원주 다이내믹댄싱카니발,강원도,원주시,4213010600,명륜동,4.21E+11,강원도 원주시 단구로 170 (명륜동),26447,37.336428,127.9462616,20200908,2020,9,8,2861
615,원주 한지문화제,강원도,원주시,4213011500,무실동,4.21E+11,강원도 원주시 한지공원길 151 (무실동),26478,37.33437725,127.9353773,20200903,2020,9,3,7262
642,둔내고랭지토마토축제,강원도,횡성군,4273033027,둔내면,4.27E+11,강원도 횡성군 둔내면 둔내로51번길 17,25264,37.5119262,128.2190272,20200814,2020,8,14,28427
643,횡성더덕축제,강원도,횡성군,4273035024,청일면,4.27E+11,강원도 횡성군 청일면 유동로 17,25254,37.58392059,128.1502908,20200918,2020,9,18,27906
644,안흥찐빵축제,강원도,횡성군,4273032021,안흥면,4.27E+11,강원도 횡성군 안흥면 안흥로 27,25271,37.41281125,128.1561222,20201009,2020,10,9,4014
645,횡성한우축제,강원도,횡성군,4273025022,횡성읍,4.27E+11,강원도 횡성군 횡성읍 문예로 75,25236,37.48902982,127.9759576,20201015,2020,10,15,5887
714,동해무릉제,강원도,동해시,4217010100,천곡동,4.22E+11,강원도 동해시 중앙로 250 (천곡동),25769,37.5230127,129.1143227,20201009,2020,10,9,20192
9,춘천마임축제,강원도,춘천시,4211011200,효자동,4.21E+11,강원도 춘천시 춘천로 112 (효자동),24336,37.87309646,127.7278377,20190526,2019,5,26,8528
10,정월대보름축제,강원도,춘천시,4211012300,퇴계동,4.21E+11,강원도 춘천시 퇴계농공로 40 (퇴계동),24420,37.849584,127.7436448,20190219,2019,2,19,18687
12,춘천가족음악축제,강원도,춘천시,4211012100,온의동,4.21E+11,강원도 춘천시 방송길 109 (온의동),24363,37.86760654,127.7216035,20190921,2019,9,21,23773
13,김유정문학제,강원도,춘천시,4211033024,신동면,4.21E+11,강원도 춘천시 신동면 김유정로 1430-14,24412,37.81831318,127.717698,20191001,2019,10,1,8583
77,강원아트페어춘천전,강원도,춘천시,4211010700,옥천동,4.21E+11,강원도 춘천시 서부대성로 71,24264,37.8824701,127.731333,20190611,2019,6,11,23724
78,춘천국제고음악제,강원도,춘천시,4211010900,죽림동,4.21E+11,강원도 춘천시 중앙로77번길 35,24354,37.8774474,127.7288095,20190921,2019,9,21,27324
90,2019 무한청춘 페스티벌,강원도,춘천시,4211011200,효자동,4.21E+11,강원도 춘천시 효자상길5번길 13 (효자동),24336,37.87261489,127.7293399,20190906,2019,9,6,2557
91,문화의거리 문화한마당,강원도,춘천시,4211011200,효자동,4.21E+11,강원도 춘천시 춘천로 112 (효자동),24336,37.8734185,127.7278377,20190817,2019,8,17,3149
104,마임교실 운영지원,강원도,춘천시,4211011200,효자동,4.21E+11,강원도 춘천시 춘천로 112 (효자동),24336,37.8734185,127.7278377,20190507,2019,5,7,21325
105,전국합창경연대회,강원도,춘천시,4211010200,요선동,4.21E+11,강원도 춘천시 중앙로 40-1 (요선동),24272,37.8785527,127.7260249,20190823,2019,8,23,1392
106,전국관악경연대회,강원도,춘천시,4211010200,요선동,4.21E+11,강원도 춘천시 중앙로 40-1 (요선동),24272,37.8785527,127.7260249,20190820,2019,8,20,29253
107,춘천인음악회,강원도,춘천시,4211012400,석사동,4.21E+11,강원도 춘천시 공지로 111,24389,37.8564737,127.7467644,20190629,2019,6,29,2170
165,삼척장미축제,강원도,삼척시,4223012500,정상동,4.22E+11,강원도 삼척시 오십천로 536 (정상동),25928,37.43501045,129.1752024,20190515,2019,5,15,17494
166,삼척비치썸패스터벌,강원도,삼척시,4223010700,갈천동,4.22E+11,강원도 삼척시 테마타운길 19 (갈천동),25909,37.46667271,129.1705322,20190726,2019,7,26,27115
168,삼척동해왕이사부축제,강원도,삼척시,4223010600,교동,4.22E+11,강원도 삼척시 중앙로 296 (교동),25914,37.44988816,129.1656266,20191004,2019,10,4,29841
169,봄내예술제,강원도,춘천시,4211010700,옥천동,4.21E+11,강원도 춘천시 서부대성로 71 (옥천동),24264,37.88252734,127.731333,20190510,2019,5,10,24505
170,김유정추모제,강원도,춘천시,4211033024,신동면,4.21E+11,강원도 춘천시 신동면 김유정로 1430-14,24412,37.81831318,127.717698,20190329,2019,3,29,2679
171,춘천인형극제,강원도,춘천시,4211011900,사농동,4.21E+11,강원도 춘천시 영서로 3017 (사농동),24235,37.9210964,127.7201052,20190928,2019,9,28,28663
175,삼척평생학습박람회,강원도,삼척시,4223011900,성남동,4.22E+11,강원도 삼척시 엑스포로 45 (성남동),25919,37.43896231,129.160145,20191019,2019,10,19,21324
179,소양강문화제,강원도,춘천시,4211012300,퇴계동,4.21E+11,강원도 춘천시 퇴계농공로 40 (퇴계동),24420,37.849584,127.7436448,20190926,2019,9,26,17890
180,춘천연극제,강원도,춘천시,4211010700,옥천동,4.21E+11,강원도 춘천시 서부대성로 71 (옥천동),24264,37.88237557,127.731333,20190615,2019,6,15,20994
212,삼척맹방유채꽃축제,강원도,삼척시,4223031021,근덕면,4.22E+11,강원도 삼척시 근덕면 삼척로 3992-8,25932,37.405447,129.2050939,20190329,2019,3,29,28000
213,황영조 국제 마라톤 대회,강원도,삼척시,4223011900,성남동,4.22E+11,강원도 삼척시 엑스포로 45 (성남동),25919,37.43896231,129.160145,20190428,2019,4,28,18009
243,민둥산억새꽃축제,강원도,정선군,4277032022,남면,4.28E+11,강원도 정선군 남면 민둥산로 7,26148,37.25494758,128.779595,20190927,2019,9,27,6968
367,황태축제,강원도,인제군,4281032024,북면,4.28E+11,강원도 인제군 북면 황태길 372,24605,38.2208221,128.3707557,20190606,2019,6,6,24186
368,진동계곡산나물축제,강원도,인제군,4281033025,기린면,4.28E+11,강원도 인제군 기린면 조침령로 1061,24653,37.96392812,128.4053588,20190518,2019,5,18,7790
370,평창송어축제,강원도,평창군,4276036021,진부면,4.28E+11,강원도 평창군 진부면 경강로 3562,25332,37.6332195,128.5570386,20191228,2019,12,28,4126
380,한강낙동강발원지축제,강원도,태백시,4219010100,황지동,4.22E+11,강원도 태백시 태붐로 21 (황지동),26023,37.16421694,128.9865547,20190720,2019,7,20,6570
772,달맞이축제,강원도,양구군,4280025021,양구읍,4.28E+11,강원도 양구군 양구읍 박수근로 366-33,24519,38.1063244,127.981517,20190219,2019,2,19,4709
773,곰취축제,강원도,양구군,4280025021,양구읍,4.28E+11,강원도 양구군 양구읍 박수근로 366-33,24519,38.1063244,127.981517,20190504,2019,5,4,16534
774,도솔산지구전투 전승행사,강원도,양구군,4280025021,양구읍,4.28E+11,강원도 양구군 양구읍 박수근로 366-33,24519,38.1063244,127.981517,20190615,2019,6,15,29374
775,배꼽축제,강원도,양구군,4280025021,양구읍,4.28E+11,강원도 양구군 양구읍 박수근로 366-33,24519,38.1063244,127.981517,20190802,2019,8,2,8101
776,양록제,강원도,양구군,4280025021,양구읍,4.28E+11,강원도 양구군 양구읍 함춘로 25-9,24521,38.109607,127.985179,20191010,2019,10,10,26588
777,시래기축제,강원도,양구군,4280034026,해안면,4.28E+11,강원도 양구군 해안면 해안서화로 15,24562,38.291042,128.143313,20191026,2019,10,26,13513
851,제37회 고성군민의 날 및 수성문화제,강원도,고성군,4282025025,간성읍,4.28E+11,강원도 고성군 간성읍 수성로 87,24728,38.375898,128.4649304,20190923,2019,9,23,8025
852,제21회 고성통일명태축제,강원도,고성군,4282025321,거진읍,4.28E+11,강원도 고성군 거진읍 해오름해변길 125,24713,38.43974397,128.4541653,20191017,2019,10,17,11237
856,양양송이축제,강원도,양양군,4283025021,양양읍,4.28E+11,강원도 양양군 양양읍 일출로 570,25030,38.073761,128.625101,20190926,2019,9,26,11238
857,양양연어축제,강원도,양양군,4283025021,양양읍,4.28E+11,강원도 양양군 양양읍 일출로 570,25030,38.073761,128.625101,20191024,2019,10,24,19147
858,양양문화제,강원도,양양군,4283025021,양양읍,4.28E+11,강원도 양양군 양양읍 일출로 570,25030,38.073761,128.625101,20190620,2019,6,20,27996
